ssvid,main_flag,main_shipname,main_imo,main_callsign,main_class,main_type,main_overlap_hrs,main_spoofing,main_pos_count,gap_id,gap_start,gap_end,gap_hours,gap_distance_m,gap_implied_speed_knots,gap_score,positions_per_day,off_lat,off_lon,off_eez_iso3,off_distance_from_shore_m,on_lat,on_lon,on_eez_iso3,on_distance_from_shore_m,trip_start,trip_end,trip_id
630124007,GNB,UMAIA,7504378,J5MM1,trawlers,fishing,0,0.0,106596,4f0f9e8a5b88785130d1669b938edd4b,2021-08-15 06:59:23.000000 UTC,2021-08-16 18:42:37.000000 UTC,35.716666666666669,10793.184147902068,0.16316901199095252,830.4125,385.46413532681981,11.485825,-17.110615,GNB,71000.0,11.39408,-17.1429516667,GNB,72000.0,2021-07-31 02:39:33.000000 UTC,2021-08-24 09:04:46.000000 UTC,630124007-bdca35982-26e8-6a0a-cab7-399bad4ab1c1-017afa6e5688
412201809,CHN,LONG XING 622,,,drifting_longlines,fishing,0,0.00011,365309,6e51ed3d730045132d40d2e97e896538,2019-05-18 23:30:27.000000 UTC,2019-05-19 07:58:27.000000 UTC,8.4666666666666668,43798.270272128539,2.7932095290978389,23.988888888888891,49.112374679253406,-13.2598333333,-9.18488,,473000.0,-13.19738,-8.785375,,445000.0,2018-09-20 07:13:06.000000 UTC,2019-09-08 07:50:26.000000 UTC,412201809-c1c95891a-a682-597a-2e17-eb98bdb0e081-0165f5d33bd0
663000000,SEN,RAMATOULAYE,0,6WHZ,fishing,SEN_additions,11201,2.22321,2212260,c6426d461c0ac1292ab5bf2939f15fd8,2021-09-21 00:43:03.000000 UTC,2021-09-21 08:53:28.000000 UTC,8.1666666666666661,22393.8215553741,1.4806158739833892,144.95833333333331,368.02520884683383,15.7822283333,-18.18048,SEN,133000.0,15.58396,-18.21718,SEN,118000.0,2021-09-14 18:05:00.000000 UTC,2021-10-18 06:39:51.000000 UTC,663000000-592cecb2f-f7ab-6a53-5369-63379972aebd-017be57bc8e0
663265000,SEN,ABRELA,9208978,6WOQ,trawlers,fishing,0,0.00283,1299512,f84b8ee7be9fea77994edc326ae9e44a,2020-04-05 12:10:21.000000 UTC,2020-04-07 15:30:19.000000 UTC,51.31666666666667,58339.806476135745,0.61385466877063544,416.0,346.71261579692418,15.1350666667,-17.2448266667,SEN,23000.0,14.710575,-17.563935,SEN,5000.0,2020-04-04 10:45:09.000000 UTC,2020-04-07 16:45:25.000000 UTC,663265000-cb67a1305-5788-b349-dec2-61d8a8be9569-017144cb5708
619000200,CIV,GFB1,,00,fishing,fishing,0,0.0,14038,ae6213db0168a4f58d16d385c3f11675,2019-07-23 08:16:07.000000 UTC,2019-08-04 22:41:07.000000 UTC,302.41666666666669,51612.388196551859,0.092152527360681372,48.0,31.768204220686926,13.1074166667,-17.1584833333,GMB,40000.0,13.5703633333,-17.124005,GMB,40000.0,2019-07-17 22:12:14.000000 UTC,2019-08-05 05:16:00.000000 UTC,619000200-f2128de5e-e757-7ad6-4777-becf2e192204-016c01fe3a30
636016280,LBR,BALTIC PATRIOT,9038488,D5BR9,carrier,carrier,0,0.00205,577664,290866e23802c774d8667c5b60f604c8,2019-06-14 02:03:11.000000 UTC,2019-06-14 09:27:14.000000 UTC,7.4,257756.4193582006,18.80774760362797,24.05,72.9808169506747,38.5708533333,-12.47088,PRT,259000.0,36.3341866667,-13.2379733333,,387000.0,2019-06-07 21:25:10.000000 UTC,2019-06-17 16:10:28.000000 UTC,636016280-735964861-1e74-06c5-8ca0-3213db725236-016b33d4c2f0
663265000,SEN,ABRELA,9208978,6WOQ,trawlers,fishing,0,0.00283,1299512,f0554a1a3f91819428d0b0668f056380,2020-06-18 23:53:14.000000 UTC,2020-06-19 10:21:07.000000 UTC,10.45,25671.481856837898,1.3264584960181622,161.10416666666666,372.41039893278366,15.26384,-17.32744,SEN,39000.0,15.4423583333,-17.1756266667,SEN,39000.0,2020-06-18 18:32:06.000000 UTC,2020-06-25 15:03:05.000000 UTC,663265000-cb67a1305-5788-b349-dec2-61d8a8be9569-0172c8b3cc70
224431000,ESP,KURTZIO,7385461,EAUN,tuna_purse_seines,fishing,0,0.0,649405,f1418c70002e47e907e74f081e8a1136,2020-03-23 15:21:17.000000 UTC,2020-04-03 14:28:27.000000 UTC,263.11666666666667,678048.01421544445,1.3914612213033726,340.0,402.00139734007143,1.2478133333,-5.4064533333,,407000.0,-1.3396033333,-10.9285833333,,721000.0,2020-03-22 11:57:56.000000 UTC,2020-05-15 13:31:22.000000 UTC,224431000-6ed4f138c-c178-85cf-a26c-2851bcf6eac0-0171021b4da0
306783000,BES,GALERNA,7409140,PJQD,tuna_purse_seines,fishing,0,0.0,699296,f2c22b840a2b304b86cabce80967a30c,2021-05-10 22:37:05.000000 UTC,2021-05-18 09:22:14.000000 UTC,178.75,858495.220171358,2.593288586661505,796.0,386.54024729637763,7.81136,-14.3301066667,SLE,122000.0,12.375405,-20.657085,,406000.0,2021-04-13 07:50:18.000000 UTC,2021-05-19 17:38:38.000000 UTC,306783000-b82c293e7-7e16-b8e4-baa8-0d859da19f90-0178ca35aa90
663179000,SEN,F\V SONA,0,,trawlers,fishing,0,0.0,754954,121ceb2eaacd6c72ba1f87f46555e0a9,2021-05-25 05:31:45.000000 UTC,2021-05-27 06:12:21.000000 UTC,48.666666666666664,108641.84906060943,1.2053816206908055,444.0,354.87798045268232,13.3495416667,-17.1616983333,GMB,37000.0,14.32437,-17.2293366667,SEN,24000.0,2021-05-15 11:24:39.000000 UTC,2021-05-27 08:54:40.000000 UTC,663179000-ccb90e6a3-32a1-cc1f-e6a3-0966118eb416-01796fc568d8
663101000,SEN,CHIQUITA,0,,trawlers,fishing,0,0.00012,1439484,b0f2fd1ff181b23b4905fea9607c33c5,2021-10-27 09:06:02.000000 UTC,2021-10-27 19:44:14.000000 UTC,10.633333333333333,2749.6086741441545,0.13962412950893491,238.36388888888885,419.06193101816734,10.521475,-17.0870516667,GNB,107000.0,10.5430266667,-17.0993833333,GNB,106000.0,2021-10-01 18:37:11.000000 UTC,2021-11-08 08:30:41.000000 UTC,663101000-3d4bfcfd2-23c1-3379-d4c2-63239c90b40e-017c3d255bd8
663161000,SEN,DIAMALAYE 1909,,,drifting_longlines,fishing,0,0.00635,275549,2dcb138b8e3fff5bf2806d4c10541242,2020-01-05 09:26:45.000000 UTC,2020-01-09 16:43:21.000000 UTC,103.26666666666667,8870.3716046895133,0.046381060333756295,688.0,46.505472009978178,9.0587283333,-30.703745,,909000.0,8.9805016667,-30.6879183333,,914000.0,2019-08-06 08:15:11.000000 UTC,2020-10-17 11:28:42.000000 UTC,663161000-62b0bee63-3b78-d5fd-0223-cbd401ae56f7-016c65ff1298
412201816,CHN,LONG XING 628,,BZZP6,drifting_longlines,fishing,0,0.0,257727,0ec8bdb3487e921161e544e7f53f41ad,2019-05-14 14:04:49.000000 UTC,2019-05-14 21:18:15.000000 UTC,7.2166666666666668,54798.965887137791,4.1001026955794213,20.447222222222223,47.290593373404022,-10.9922883333,-11.10741,,486000.0,-10.932205,-10.6091766667,,523000.0,2018-09-26 15:59:30.000000 UTC,2019-09-08 07:51:19.000000 UTC,412201816-b04de238a-ad52-7310-dcda-e48f3295f4f1-0166169b52d0
412440532,CHN,'WVQ H'WUTMAE,,,non_fishing,SEN_additions,0,0.0,420,b456d255c36ff23e32b60a978ee009b4,2019-02-03 08:08:19.000000 UTC,2019-02-16 03:51:04.000000 UTC,307.7,58958.548693276993,0.10346138930390145,208.0,85.783846292432827,-25.4519233333,33.3196,MOZ,17000.0,-25.9462083333,33.1066433333,MOZ,12000.0,0001-02-03 00:00:00.000000 UTC,2020-09-14 11:01:41.000000 UTC,412440532-33a374703-33f5-0414-5d61-d9b4879f2ba2--3882683afc00
416379000,TWN,FENG YA NO.11,,,drifting_longlines,fishing,0,0.0,280626,f59da5085136875aebd063d3c8ded3bf,2019-02-08 13:23:15.000000 UTC,2019-02-08 20:34:33.000000 UTC,7.1833333333333336,45291.116181549638,3.404442642923156,20.951388888888889,40.541423202549595,-3.7345383333,-11.8618766667,,538000.0,-3.7165166667,-11.4541016667,,564000.0,2017-07-27 11:10:07.000000 UTC,2019-06-27 14:30:40.000000 UTC,416379000-d40a79e44-454b-c0e2-1075-7cf314c51f60-015d83bd4a98
353919000,PAN,ARENE,7928859,HO2884,purse_seine_support,support,0,0.0,5593,66fbad26838ca02df8cc56dcd26594ed,2020-12-15 09:28:06.000000 UTC,2020-12-16 14:43:59.000000 UTC,29.25,314973.259821569,5.814425796488325,34.125,477.17589051976984,0.9926133333,-5.1889866667,,444000.0,3.6566133333,-4.2253866667,CIV,171000.0,2020-10-18 21:43:36.000000 UTC,2020-12-17 08:21:31.000000 UTC,353919000-df6c69804-4fa6-3f8b-f3f0-79b1e7cbca6d-01753daaf740
224431000,ESP,KURTZIO,7385461,EAUN,tuna_purse_seines,fishing,0,0.0,649405,f527be11375f27ca66b4504ba3803bea,2020-02-20 11:52:15.000000 UTC,2020-02-23 19:27:30.000000 UTC,79.583333333333329,416462.507085759,2.8256137895520386,236.0,376.04364950894433,1.1009333333,-5.5181333333,,417000.0,1.27696,-9.2601333333,,381000.0,2020-02-18 19:28:17.000000 UTC,2020-03-16 06:04:09.000000 UTC,224431000-6ed4f138c-c178-85cf-a26c-2851bcf6eac0-017059c5c068
306034000,BES,PACIFIC STAR,8716837,PJEW,tuna_purse_seines,fishing,0,0.0003,245012,7cb600048b220bf23a358023d990d41b,2019-08-13 14:26:10.000000 UTC,2019-08-21 21:09:48.000000 UTC,198.71666666666667,166436.39989836875,0.45224423283302034,24.0,247.97727349342222,17.2430166667,-17.0296716667,MRT,83000.0,16.046065,-17.9677216667,SEN,147000.0,2019-07-27 07:12:24.000000 UTC,2019-08-22 05:38:21.000000 UTC,306034000-9d80172ad-d958-7781-b799-5b5874643ba1-016c3245ffc0
412440559,CHN,FU YUAN YU 7777,,BVXM7,drifting_longlines,fishing,0,0.00015,71355,ce540cc78242cae5bad7d825b8b2b51b,2019-03-20 02:18:09.000000 UTC,2019-03-20 09:50:58.000000 UTC,7.5333333333333332,29963.126076448494,2.1476274926256593,20.088888888888889,30.583597344128691,5.6196883333,-34.18258,,1064000.0,5.51677,-34.4327966667,,1059000.0,2019-01-19 17:40:24.000000 UTC,2019-08-18 05:28:42.000000 UTC,412440559-06fc788d4-4343-1cc4-76e8-701ee3d07961-016867330740
663101000,SEN,,,,trawlers,fishing,0,0.00284,196,81dec5dd1347f622fcb6a58cbcfbdbd9,2019-01-19 07:58:38.000000 UTC,2019-01-21 19:27:45.000000 UTC,59.483333333333334,12402.242857542018,0.11258070174906079,432.0,220.03431416856847,15.0531466667,-17.3581866667,SEN,24000.0,14.9464083333,-17.3916883333,SEN,15000.0,0001-02-03 00:00:00.000000 UTC,2019-09-23 17:02:14.000000 UTC,663101000-5d3c81a7c-c786-88ab-f478-b62bec5f97e3--3882683afc00
412440616,CHN,FU YUAN YU 9812,0,00,fishing,fishing,10,0.00176,223024,4627e8515e84c25d10e92d1db37b84dc,2021-10-06 18:43:50.000000 UTC,2021-10-07 06:27:12.000000 UTC,11.716666666666667,2877.3768755120122,0.13260249388667569,48.81944444444445,41.446526597247612,12.2989466667,-17.1118266667,SEN,38000.0,12.2792866667,-17.1290466667,SEN,41000.0,2021-09-09 09:24:50.000000 UTC,2021-10-13 15:04:59.000000 UTC,412440616-77042ca33-3e59-a0aa-87d2-88e68daa27a8-017bc9dfc2d0
412330948,CHN,MOONIKA 2,,6WMM,fishing,fishing,0,0.0,177315,c29b28e3d8477fc6de275affb8264f50,2020-07-09 12:59:09.000000 UTC,2020-07-09 23:57:57.000000 UTC,10.966666666666667,37287.6227993786,1.8359002080743367,25.588888888888889,50.89653279731715,12.683175,-17.5111416667,SEN,78000.0,13.008545,-17.4279166667,SEN,71000.0,2020-06-28 21:25:06.000000 UTC,2020-07-16 01:45:36.000000 UTC,412330948-5125e0f92-2688-88f2-8462-0de3e05dd023-0172fcd1c750
224394000,ESP,RIODOMARQUINTO,9317638,ECHY,trawlers,fishing,0,0.0,265645,98bc6bb260f564031e9c702cf5d8f9b2,2019-04-05 09:10:54.000000 UTC,2019-04-05 20:27:24.000000 UTC,11.266666666666667,37272.17191568327,1.7862748052169701,122.99444444444445,252.19024575575304,9.0590266667,-15.1415816667,GIN,148000.0,9.116225,-15.47606,GIN,165000.0,0001-02-03 00:00:00.000000 UTC,2021-03-11 15:06:23.000000 UTC,224394000-bb214c59e-e790-691c-21ae-c50b51c566e8--3882683afc00
412331129,CHN,LUQINGYUANYU051,,0,fishing,fishing,0,0.0,34042,b39c4751cf2933684bcc86ccad410f49,2021-06-28 02:02:59.000000 UTC,2021-06-30 08:40:55.000000 UTC,54.616666666666667,52969.4647996202,0.523672070075619,20.0,43.48598650430722,10.7427983333,-16.4262283333,GNB,42000.0,10.6180833333,-15.9583733333,GNB,34000.0,2021-06-16 22:16:08.000000 UTC,2021-07-01 09:33:07.000000 UTC,412331129-9cf0187db-b472-008b-cb47-7ac486628758-017a16e55c40
412209083,CHN,TIANG EI HU,,0,fishing,fishing,0,0.0,25394,d2e5b8e53142284c25b15d0272be73d4,2020-11-27 11:40:03.000000 UTC,2020-12-03 23:57:29.000000 UTC,156.28333333333333,93657.022275898373,0.32358374556431,20.0,36.258362950058427,10.6354633333,-16.666205,GNB,68000.0,11.4154433333,-16.9900866667,GNB,57000.0,2020-11-25 12:24:15.000000 UTC,2021-01-06 09:21:18.000000 UTC,412209083-364511e7e-ec82-68e9-2702-2ec05725207d-0175ff5c8598
412283999,CHN,CHANG RONG 3,8947204,BZYC9,drifting_longlines,fishing,0,0.00416,1550460,a1fa743c4dc6716edb4e6abbb199d44d,2020-12-20 21:59:17.000000 UTC,2020-12-22 20:55:24.000000 UTC,46.93333333333333,240506.15340803252,2.7669659191541145,1196.8,635.14119082742354,9.834515,-32.8803033333,,1042000.0,11.5204333333,-34.2591883333,,1092000.0,2019-07-25 07:19:33.000000 UTC,2021-06-04 09:00:12.000000 UTC,412283999-1138c29c1-1a59-0507-4004-c79f079ad160-016c27ffd388
412440649,CHN,FU YUAN YU 9805,,0,trawlers,fishing,0,0.0,277596,9a42180888657d72981eb514883518d4,2021-12-27 16:53:12.000000 UTC,2021-12-28 07:49:06.000000 UTC,14.916666666666666,133948.19179113113,4.8486863107182137,43.506944444444436,33.7669127590957,12.211605,-17.53557,SEN,86000.0,13.41537,-17.4889466667,GMB,73000.0,2021-11-26 10:56:07.000000 UTC,2021-12-28 14:45:28.000000 UTC,412440649-3bbf32e07-7bbc-8457-5eda-74a2ebe5f4b1-017d5be35d58
412200989,CHN,CHANG YUAN YU 12,,YND,trawlers,fishing,0,0.0,54534,3ffed6b935761643b4a8af3b9014c1b2,2019-06-18 20:50:17.000000 UTC,2019-07-04 00:14:42.000000 UTC,363.4,79534.8413081694,0.11817660615332248,40.0,28.885049922611415,14.5141333333,-17.3427,SEN,19000.0,13.8206433333,-17.1620266667,SEN,43000.0,2019-06-18 20:24:46.000000 UTC,2019-07-04 05:58:02.000000 UTC,412200989-f1fe7dadb-b0cd-0f82-682f-99380c87e8a7-016b6c436ab0
663521000,SEN,KANBAL III,0,6WGC,trawlers,fishing,0,0.0,462654,b16ea4e558888024f196985b2e91fe44,2021-04-12 19:32:26.000000 UTC,2021-04-13 10:57:15.000000 UTC,15.4,102519.68165400995,3.5945584154024415,132.18333333333334,334.09436491054407,15.793645,-16.97874,SEN,41000.0,14.9557316667,-17.3776616667,SEN,16000.0,2021-04-02 18:45:02.000000 UTC,2021-04-22 09:17:29.000000 UTC,663521000-b7bb0f89d-dfa3-cab8-0dc3-946c1e7027be-017893e723b0
412209112,CHN,MX17,,,set_longlines,fishing,0,0.0,22767,0268cf7e72a3fbb7565bd1fb2c59ede3,2020-10-21 05:47:04.000000 UTC,2020-10-22 23:04:53.000000 UTC,41.283333333333331,19159.043118328638,0.25058673426184358,44.723611111111104,57.060140339600252,7.9869033333,-14.07423,SLE,90000.0,8.1013266667,-13.9441283333,SLE,75000.0,2018-06-12 12:42:23.000000 UTC,2021-04-20 12:28:55.000000 UTC,412209112-3ae062330-0a2e-7e95-640a-bc5c09bc27c9-0163f404c398
228967000,FRA,F/V CORONA DEL MAR,9093206,FIPY,fishing,fishing,0,0.0,350100,a9e3107783f07627d0bb46f00474e477,2021-08-26 19:01:25.000000 UTC,2021-09-09 09:36:13.000000 UTC,326.56666666666666,425810.44695032539,0.70404995757890365,268.0,361.34537524406551,14.6198966667,-17.4709766667,SEN,5000.0,18.2093766667,-18.862095,MRT,276000.0,2021-08-26 18:30:35.000000 UTC,2021-09-27 03:12:15.000000 UTC,228967000-225be91ff-f744-cd74-80d0-163ad2a6d887-017b83ba60f8
412440337,CHN,FU YUAN YU 118,,,non_fishing,SEN_additions,0,0.0,23723,0f6f052be6bec6ece160c27da90bec0f,2021-10-05 01:15:58.000000 UTC,2021-10-10 07:52:44.000000 UTC,126.6,256970.1841853853,1.0959936748512571,32.0,35.947513551370321,14.58475,-17.381245,SEN,10000.0,12.28635,-17.1336,SEN,40000.0,2021-10-04 10:40:08.000000 UTC,2021-10-24 03:03:59.000000 UTC,412440337-8eb5134d3-3bc0-024f-29e0-b47f946cae18-017c4ae3af40
412549197,CHN,GUOJIN908,,,trawlers,fishing,0,0.0,129647,c4cedfda5958f67b3c5aa1b94f5146a5,2020-08-27 18:23:01.000000 UTC,2020-08-28 10:18:58.000000 UTC,15.916666666666666,169521.12762086498,5.7508326401071423,120.70138888888887,64.8344706984177,10.5642766667,-15.7600316667,GNB,34000.0,11.4493083333,-17.0246533333,GNB,61000.0,2020-08-25 18:16:44.000000 UTC,2020-08-29 04:13:35.000000 UTC,412549197-b1746e808-87ff-d6f5-bd85-255ca80d9d1a-017426d62ae0
412202222,CHN,FUYUANYU128,,,fishing,SEN_additions,0,0.0,18069,ba5117494bc4831dc79f44ddb0b5d278,2020-01-01 03:48:16.000000 UTC,2020-01-02 19:46:21.000000 UTC,39.966666666666669,199284.89017038836,2.69237445221254,29.975000000000005,35.357005443269259,11.8839383333,-17.17936,GNB,71000.0,10.3405133333,-16.25096,GNB,77000.0,2019-12-26 11:30:30.000000 UTC,2020-01-29 15:21:49.000000 UTC,412202222-7e3bf7a9f-f3cf-d513-9fb7-78b80dac805b-016f41f8ebf0
355794000,PAN,IRENE,8304749,HP3077,purse_seine_support,support,0,0.0,784999,3281c4480b382aec6bd5552b4b8f2d2b,2020-07-22 08:28:43.000000 UTC,2020-07-22 19:33:43.000000 UTC,11.083333333333334,57353.632189411517,2.79414892363037,31.402777777777782,336.1421041853414,18.9129333333,-17.1197066667,MRT,78000.0,18.4823966667,-16.8198366667,MRT,74000.0,2020-05-14 09:22:04.000000 UTC,2020-08-14 06:28:50.000000 UTC,355794000-914f83946-6af4-04c6-4974-44a203a87952-0172127da660
312191000,BLZ,PLAYA DE AZKORRI,9476111,V3ML9,tuna_purse_seines,fishing,0,0.0,294551,2bb9e84b6d2ae5b30a2a2c87da4ec4dc,2020-05-04 10:33:09.000000 UTC,2020-05-11 19:51:20.000000 UTC,177.3,1612232.0107683125,4.9099585051520114,300.0,364.41315904075395,-3.8189066667,9.7401066667,GAB,108000.0,0.464105,-4.121195,,523000.0,2020-04-01 16:05:10.000000 UTC,2020-05-13 10:06:06.000000 UTC,312191000-46a0b7496-6fa4-0f32-0f9b-a68fed1604e4-0171367d3ef0
630124003,GNB,,,,set_longlines,SEN_additions,0,0.0,113,d0b13dd6048d8a9271e6a6093645aa2e,2020-05-13 23:17:48.000000 UTC,2020-06-12 14:33:08.000000 UTC,711.25,2.4360410688379548,1.849359505963594e-06,24.0,344.61725066287931,13.4411466667,-16.57872,GMB,2000.0,13.4411683333,-16.5787166667,GMB,2000.0,0001-02-03 00:00:00.000000 UTC,2020-09-29 20:04:35.000000 UTC,630124003-270eb26f1-1e47-4773-fd8a-8024a106d357--3882683afc00
630124007,GNB,UMAIA,7504378,J5MM1,trawlers,fishing,0,0.0,106596,177340ca6e5b37b65bd69769551cf094,2021-03-12 20:26:50.000000 UTC,2021-03-13 17:27:13.000000 UTC,21.0,22615.131871997179,0.58148544358729759,281.75,349.89992989136636,12.107195,-17.2878833333,SEN,65000.0,11.979705,-17.1258533333,SEN,60000.0,2021-03-05 02:12:30.000000 UTC,2021-03-14 04:17:54.000000 UTC,630124007-bdca35982-26e8-6a0a-cab7-399bad4ab1c1-0178002862b0
412202673,CHN,FU YUAN YU 129,,,trawlers,SEN_additions,0,0.00011,104948,56e93ecaa2c13e2155b13f23558b19bc,2019-02-07 01:22:19.000000 UTC,2019-02-07 08:23:43.000000 UTC,7.0166666666666666,46450.33170022675,3.5745139132036821,25.143055555555552,29.888708015749216,12.1314683333,-16.9000516667,SEN,30000.0,11.7189233333,-16.832945,GNB,49000.0,2019-01-22 17:03:19.000000 UTC,2019-02-13 08:50:42.000000 UTC,412202673-5f314b4fd-dce1-55bf-b62d-10563731dba0-0168768427d8
372124000,PAN,ZAHARA TRES,9292735,3EZF8,purse_seine_support,support,0,0.0,531899,98fff4c4b5daa340551ab20076de6d1b,2021-09-05 05:25:01.000000 UTC,2021-09-05 16:26:17.000000 UTC,11.016666666666667,98953.825739399865,4.8499961969102312,342.43472222222226,328.17750091932,18.5891366667,-17.5945366667,MRT,139000.0,19.40444,-17.97177,MRT,149000.0,2021-08-12 18:32:37.000000 UTC,2021-09-15 08:04:22.000000 UTC,372124000-1ecf6b34a-a50c-5f87-919a-18d91eb67e4c-017b3ba33588
412209195,CHN,,,,trawlers,fishing,0,0.0,2393,4ecbe60ff6fd6367eda93e6aa563dcca,2019-03-06 21:54:07.000000 UTC,2019-03-07 10:04:38.000000 UTC,12.166666666666666,37475.524996421409,1.6631642206761181,27.375,75.34847417177275,-25.482875,33.204085,MOZ,13000.0,-25.7588916667,32.9896033333,MOZ,22000.0,0001-02-03 00:00:00.000000 UTC,2019-09-26 21:22:20.000000 UTC,412209195-76f08beba-a36a-7d8c-1e14-979ce4cd41b5--3882683afc00
416036700,TWN,HAU SHEN NO236,,BH3300,drifting_longlines,fishing,0,0.0,21640,fbfe379a3744fcf392bea419226aeef7,2019-03-16 00:10:00.000000 UTC,2019-03-16 09:36:17.000000 UTC,9.4333333333333336,13385.407809631,0.76617053150243464,21.225,25.937108433944388,-5.3541383333,-22.7596933333,,965000.0,-5.442,-22.67704,,953000.0,2018-08-29 07:59:02.000000 UTC,2019-09-15 07:15:19.000000 UTC,416036700-350ed014d-da88-a3c9-b0ab-7cdcc40d3a89-016584b16170
629100290,GMB,SAGE,,,drifting_longlines,fishing,0,0.0,3,e0fb3f7ded264505275c4de1a4d4d97d,2020-03-25 10:30:51.000000 UTC,2020-03-25 22:11:19.000000 UTC,11.666666666666666,71956.953973293072,3.3303125874711386,140.0,60.041836887021447,5.070095,-33.9015383333,,999000.0,5.6666366667,-34.1534566667,,1069000.0,0001-02-03 00:00:00.000000 UTC,2020-05-10 21:10:08.000000 UTC,629100290-ccbdd9117-752a-f1a7-7547-cf0ca672e1a3--3882683afc00
663221000,SEN,MASEOUD 4,0,6WNA,trawlers,fishing,0,0.00314,1205326,8b372203f64b64d2706f8fee1dde8292,2019-09-14 23:01:57.000000 UTC,2019-09-15 20:03:34.000000 UTC,21.016666666666666,370130.23900666251,9.5093262830931238,24.519444444444446,9.9404327885768,35.3710666667,22.20728,GRC,108000.0,35.9544333333,18.1733666667,ITA,280000.0,2019-09-01 23:26:39.000000 UTC,2019-09-27 09:15:08.000000 UTC,663221000-4449ea354-40ec-1648-d0fd-57c55190ba34-016cef26e398
663092000,SEN,SOKONE,0,6WKG,trawlers,fishing,0,0.0,1165656,fb11404f492a6ccfc729244e03460f81,2020-10-30 23:13:23.000000 UTC,2020-10-31 07:30:40.000000 UTC,8.2833333333333332,22594.820410294964,1.4728644269696993,87.665277777777774,397.16033246741335,13.4219733333,-17.49632,GMB,74000.0,13.2304466667,-17.5660783333,GMB,82000.0,2020-10-23 16:36:44.000000 UTC,2020-11-23 03:44:36.000000 UTC,663092000-59d7c9fd1-194e-8625-e59e-349a2d0b9d63-01755651d160
654014800,MRT,RIMBAL 2,0,5T924,trawlers,fishing,0,0.0,55808,fe0f4fcbcaed3afe9aef51294119416b,2020-10-03 23:55:08.000000 UTC,2020-10-05 08:20:41.000000 UTC,32.416666666666664,544140.85186673573,9.0636263754335324,251.22916666666666,341.45865573497895,20.49816,-17.1688533333,MRT,32000.0,15.616565,-17.5288366667,SEN,81000.0,2020-10-03 22:17:55.000000 UTC,2020-10-05 15:38:36.000000 UTC,654014800-f442e193d-dd0b-138b-42ea-6f9a46a8525e-0174f08afe38
312418000,BLZ,NAVIGATOR,9139610,V3RB9,trawlers,SEN_additions,0,0.0,820201,117ccd6738e8092c253819ea548df9e3,2019-12-15 05:20:02.000000 UTC,2019-12-16 05:34:30.000000 UTC,24.233333333333334,147402.46274900972,3.2843588421233827,381.675,262.42278020550657,16.3931066667,-16.681925,MRT,19000.0,15.1930916667,-17.2672683333,SEN,29000.0,2019-12-14 20:11:08.000000 UTC,2019-12-16 10:20:16.000000 UTC,312418000-3553fcb95-5b43-dc95-1167-497568e7d425-016f06094360
412440428,CHN,FU YUAN YU 128,,,trawlers,fishing,7,0.00253,18803,bf51e0ae3b5275ce9e619f3a296d93d3,2020-08-18 05:20:32.000000 UTC,2020-08-18 14:37:16.000000 UTC,9.2666666666666675,6298.2879125164854,0.36699317357765,20.85,53.481676279343219,12.0031233333,-17.0299483333,GNB,50000.0,12.0197983333,-16.974605,GNB,45000.0,2020-07-01 15:09:19.000000 UTC,2020-08-30 22:21:36.000000 UTC,412440428-02ee6d3e6-6200-fc96-c334-334fd36205f2-01730aecd118
412331134,CHN,LUQINGYUANYU56,0,0,fishing,fishing,0,0.00104,33499,3ae0bc41a8a8ad996e97673abe827fbd,2019-10-23 17:42:21.000000 UTC,2019-11-10 17:57:52.000000 UTC,432.25,5438302.5091338642,6.7934029822028039,32.0,55.260365698356708,6.62896,77.6562133333,IND,161000.0,31.1813766667,32.33258,ECU,1000.0,2019-06-08 05:13:04.000000 UTC,2020-01-08 23:10:38.000000 UTC,412331134-e39f4d444-4c14-f1eb-2aa6-38eb42180ae9-016b35812300
224067000,ESP,SP WARSHIP,0,EBFJ,fishing,fishing,0,0.00659,9586,9e274d8474a8bc23d606098ff14ad0d7,2021-06-09 09:40:00.000000 UTC,2021-06-14 07:16:25.000000 UTC,117.6,1164947.520507413,5.34882091298345,32.0,402.60288056929744,4.4659766667,-14.9131416667,,404000.0,14.6558,-17.3854866667,SEN,5000.0,2021-06-05 15:34:34.000000 UTC,2021-06-14 09:08:49.000000 UTC,224067000-1fc046320-0a50-6c9b-e0ca-abc88b7f3c6d-0179dccfc310
630124007,GNB,UMAIA,7504378,J5MM1,trawlers,fishing,0,0.0,106596,f443c36499f2e1bc6294e77c68f77cfc,2021-03-07 18:35:11.000000 UTC,2021-03-11 08:01:20.000000 UTC,85.433333333333337,43495.409285999616,0.27490022040265405,900.0,360.12821796049047,11.1551566667,-17.0907716667,GNB,67000.0,11.4916766667,-17.2941366667,GNB,90000.0,2021-03-05 02:12:30.000000 UTC,2021-03-14 04:17:54.000000 UTC,630124007-bdca35982-26e8-6a0a-cab7-399bad4ab1c1-0178002862b0
412440533,CHN,FUYUANYU9887,0,0000000,trawlers,SEN_additions,0,0.00035,295783,b5eb4ead6f76ea9647ab519752b8b14e,2020-11-12 22:11:25.000000 UTC,2020-11-13 19:05:43.000000 UTC,20.9,54250.346782402754,1.4015714753584061,195.06666666666663,443.67995017141538,12.5467116667,-17.1116683333,SEN,35000.0,13.0329416667,-17.1528333333,SEN,40000.0,2020-11-01 06:28:51.000000 UTC,2020-11-21 09:05:12.000000 UTC,412440533-4c3e98467-743d-7095-6467-410d98aa4970-0175827e84b8
306120000,BES,PATUDO,9276092,PJCF,purse_seine_support,support,0,0.0,424951,7737c1e54d8e5145c2c9f93af457a8d4,2021-09-20 01:36:21.000000 UTC,2021-10-08 19:46:37.000000 UTC,450.16666666666669,1492301.9254428032,1.7899561142974842,232.0,373.0063573333141,-1.1429016667,8.0902666667,GAB,83000.0,3.4743633333,-4.5170666667,CIV,188000.0,2021-09-16 17:01:29.000000 UTC,2021-10-09 07:27:21.000000 UTC,306120000-d926ad87c-cc41-d02b-bd24-c128da4578c7-017bef8e5a28
663220000,SEN,MASEOUD3,0,6WMZ,trawlers,SEN_additions,0,0.00013,923453,11958631de526d4492c70cf16a89e9ca,2021-09-15 04:52:05.000000 UTC,2021-09-16 14:54:44.000000 UTC,34.033333333333331,23189.627187009908,0.36791567980101308,564.38611111111106,378.22704083302278,12.6635866667,-17.253985,SEN,50000.0,12.8535833333,-17.34215,SEN,60000.0,2021-08-29 23:28:07.000000 UTC,2021-09-29 08:59:28.000000 UTC,663220000-bed660dba-a8c8-eaf9-192e-c67d3f1718a4-017b943ddb58
412203336,CHN,FU YUAN YU 127,,4144042,non_fishing,SEN_additions,0,0.0,1230,fba4f48f9f6ce499cf6b5c08cfad0424,2019-11-20 11:41:21.000000 UTC,2019-11-22 11:26:06.000000 UTC,47.733333333333334,10563.688791122369,0.11949585821973793,23.866666666666664,21.4462324593743,11.64789,-16.9608716667,GNB,60000.0,11.63565,-16.8646833333,GNB,49000.0,0001-02-03 00:00:00.000000 UTC,2020-06-12 12:37:18.000000 UTC,412203336-c1da79e6a-a609-5d67-31e1-fe0d95dc0354--3882683afc00
663129000,SEN,SIERRA DE DAKAR,9144625,6WKN,trawlers,fishing,0,0.0,1628082,de820b82099d2abcf5ec8d63b543c9e4,2021-01-22 19:51:09.000000 UTC,2021-01-23 07:30:29.000000 UTC,11.65,7711.9730683537,0.357436251186686,193.19583333333333,319.07775695229861,14.9535166667,-17.383155,SEN,15000.0,14.9490266667,-17.45479,SEN,18000.0,2021-01-09 08:58:47.000000 UTC,2021-02-07 10:35:20.000000 UTC,663129000-7374d1988-87f8-6037-66b4-59854a026efb-0176e65e9558
225989933,ESP,FRIOMAR,9853462,EAYM,trawlers,fishing,0,0.00151,1766893,de187e4a8391718d58eb958f15ca8bf8,2020-02-03 05:02:01.000000 UTC,2020-02-03 18:20:29.000000 UTC,13.3,15519.833750694337,0.63007818211948619,191.74166666666667,360.11932285667672,9.8239733333,-16.8624533333,GNB,153000.0,9.8950783333,-16.74055,GNB,139000.0,2020-01-22 15:56:12.000000 UTC,2020-02-07 23:22:15.000000 UTC,225989933-baa191958-843d-fe67-0458-4d889d60c244-016fcdf7e160
228168000,FRA,F/V VIA EUROS,9017862,FGRS,tuna_purse_seines,fishing,0,0.0008,780891,d203e7f40bda0242f115ede6904a385f,2020-03-29 06:48:06.000000 UTC,2020-04-02 19:04:27.000000 UTC,108.26666666666667,586752.39345981821,2.9263018484534333,940.0,421.32534495224263,1.7375466667,-8.2056266667,LBR,296000.0,4.3999733333,-12.7684533333,LBR,299000.0,2020-03-26 17:45:35.000000 UTC,2020-04-09 09:50:02.000000 UTC,228168000-58c1da396-6d6e-e1b7-11e7-ba9d7c2dc91b-017117f30618
225458000,ESP,HAIZEA BAT,9717943,EAKQ,purse_seine_support,support,0,0.0,300199,a657e59a548c84ae665eda23ab2a63f6,2019-01-13 04:45:00.000000 UTC,2019-02-24 20:32:41.000000 UTC,1023.7833333333333,31943.379341216645,0.016847358654002578,496.0,249.11279801448518,1.4907116667,-3.56522,,395000.0,1.632,-3.81544,,391000.0,2019-01-03 09:07:02.000000 UTC,2019-02-25 17:25:39.000000 UTC,225458000-36afee56d-dc41-2043-2020-6ce82887383e-016812f746f0
663101000,SEN,,,,trawlers,fishing,0,0.00284,196,828e7f10cf3d2d030c2ee93a6557556c,2019-01-08 22:30:04.000000 UTC,2019-01-14 04:31:01.000000 UTC,126.0,6441.6131236556748,0.027604705010694893,228.0,220.03431416856847,15.596,-17.05464,SEN,37000.0,15.6511016667,-17.0360716667,SEN,39000.0,0001-02-03 00:00:00.000000 UTC,2019-09-23 17:02:14.000000 UTC,663101000-5d3c81a7c-c786-88ab-f478-b62bec5f97e3--3882683afc00
224068340,ESP,PORTOMAYOR,8619724,EFIG,trawlers,fishing,0,0.00013,390487,cd0907bcb03665df17e6b2bc032a2584,2019-09-13 18:36:59.000000 UTC,2019-09-14 05:07:06.000000 UTC,10.5,26270.698975010291,1.3509564421994391,49.875,300.93310552887942,10.8073883333,-16.670785,GNB,55000.0,10.9653333333,-16.8497066667,GNB,53000.0,2019-08-24 16:16:47.000000 UTC,2019-09-22 14:41:56.000000 UTC,224068340-e6321571b-bc27-89df-6a5b-9556cb8bc5ae-016cc46a7598
224745000,ESP,ALBONIGA,8613267,EDKU,tuna_purse_seines,fishing,0,0.00598,1364057,95e3dbaadf33c014c59e9382ce096270,2019-09-06 12:39:42.000000 UTC,2019-09-06 20:35:14.000000 UTC,7.916666666666667,56160.61798982232,3.8304388761956796,109.5138888888889,261.62556727354877,19.7277066667,-18.3869066667,MRT,181000.0,19.3787883333,-17.9993933333,MRT,152000.0,2019-08-28 08:23:21.000000 UTC,2019-09-13 06:45:00.000000 UTC,224745000-818356b57-7844-a4ae-919e-36a06ae5a84a-016cd75274a8
225989933,ESP,FRIOMAR,9853462,EAYM,trawlers,fishing,0,0.00301,1766893,106b141901a871616ebe1440fc35767a,2019-12-28 04:26:17.000000 UTC,2019-12-28 20:28:32.000000 UTC,16.033333333333335,33025.37043102779,1.1122000073313265,110.89722222222224,320.07986023913691,9.98688,-17.0573866667,GNB,150000.0,10.22455,-17.2383066667,GNB,144000.0,2019-11-16 23:50:18.000000 UTC,2020-01-01 17:58:21.000000 UTC,225989933-baa191958-843d-fe67-0458-4d889d60c244-016e769fda90
225989933,ESP,FRIOMAR,9853462,EAYM,trawlers,fishing,0,0.00301,1766893,c20ebd388a77d7a83620bc2a32b8433b,2019-12-26 04:25:05.000000 UTC,2019-12-26 21:26:16.000000 UTC,17.016666666666666,32471.854921716822,1.0303662479417171,224.05277777777778,314.11853671946847,10.3092266667,-17.3101333333,GNB,141000.0,10.074585,-17.1335,GNB,148000.0,2019-11-16 23:50:18.000000 UTC,2020-01-01 17:58:21.000000 UTC,225989933-baa191958-843d-fe67-0458-4d889d60c244-016e769fda90
242131100,MAR,INDALO SEGUNDO,0,CNA4665,trawlers,fishing,0,0.0,457519,b49064a953dc6a6abf6f9bacce8aae93,2021-10-28 13:07:26.000000 UTC,2021-10-28 19:36:33.000000 UTC,6.4833333333333334,14727.785427076737,1.2265863148359089,152.35833333333332,411.9773808074093,11.7707483333,-17.3962133333,GNB,97000.0,11.9029833333,-17.40392,SEN,88000.0,2021-10-20 17:36:04.000000 UTC,2021-11-13 07:35:03.000000 UTC,242131100-0f70c1d7f-f49e-1ab2-280f-920094cc35a7-017c9ec63ba0
654014800,MRT,RIMBAL 2,0,5T924,trawlers,fishing,0,0.0,55808,e566084caf46c2b8e90ade30b6b1c41d,2020-08-29 17:14:04.000000 UTC,2020-09-06 23:05:26.000000 UTC,197.85,157921.94887054848,0.43098827752155455,344.0,324.697527973829,17.2362883333,-16.4170283333,MRT,23000.0,18.6518933333,-16.5373333333,MRT,41000.0,2020-08-06 18:50:45.000000 UTC,2020-09-30 15:59:23.000000 UTC,654014800-f442e193d-dd0b-138b-42ea-6f9a46a8525e-0173c51c7b88
416004522,TWN,FENG YA NO18,,BG3739,drifting_longlines,fishing,0,0.00068,318079,57d4cf851c0cf245a9843e683d95e0e3,2019-05-21 14:09:49.000000 UTC,2019-05-21 21:03:41.000000 UTC,6.8833333333333337,5464.60194074283,0.4286657137164322,25.8125,24.607345458893462,23.6004116667,-50.25912,,1366000.0,23.6023933333,-50.2055333333,,1371000.0,0001-02-03 00:00:00.000000 UTC,2019-07-24 07:55:20.000000 UTC,416004522-902ec1b33-3111-d4b8-a254-788b8621a875--3882683afc00
663093000,SEN,AMINE,8816730,6WKH,trawlers,fishing,0,0.0016,1428136,7f1e2ae6f30bd56df7c891cec9e34e1b,2019-10-04 00:27:24.000000 UTC,2019-10-04 06:55:33.000000 UTC,6.4666666666666668,25861.740631275032,2.1594158973810731,97.538888888888891,286.99097423186737,11.9865066667,-17.0892533333,GNB,56000.0,11.7559433333,-17.1204816667,GNB,77000.0,2019-10-03 08:47:12.000000 UTC,2019-10-06 14:49:22.000000 UTC,663093000-56797171d-dc16-997d-5765-61029b1e0244-016d90cd3a80
224431000,ESP,KURTZIO,7385461,EAUN,tuna_purse_seines,fishing,0,0.0,649405,24162457723b1c4941b9a98ef8fd0ba2,2020-05-22 15:35:01.000000 UTC,2020-05-29 12:12:18.000000 UTC,164.61666666666667,1235292.9480416877,4.0518669528560505,96.0,357.54875517979258,19.4174283333,-20.5367416667,,379000.0,8.524,-18.2872,,361000.0,2020-05-21 04:00:42.000000 UTC,2020-06-14 05:40:02.000000 UTC,224431000-6ed4f138c-c178-85cf-a26c-2851bcf6eac0-01723563f210
663147000,SEN,WESTERN KIM,8003242,6 W L N,tuna_purse_seines,fishing,0,0.00013,1057124,7e91a71e58092daf74edda95b2396c2b,2021-06-08 10:22:09.000000 UTC,2021-06-08 23:42:27.000000 UTC,13.333333333333334,35892.045509475363,1.4535115622087753,233.33333333333334,393.31288908316651,8.913815,-15.2810116667,GIN,169000.0,9.198275,-15.1265333333,GIN,134000.0,2021-05-24 18:41:34.000000 UTC,2021-06-21 08:45:05.000000 UTC,663147000-533b66199-97c7-6692-46eb-606f43936f4d-01799faea730
412209197,CHN,YANGMING8005,,,fishing,fishing,0,0.0,58685,0bb2ddd2452a7f8699410c2376fd54cc,2021-03-16 11:00:56.000000 UTC,2021-03-19 18:24:10.000000 UTC,79.38333333333334,19744.068910986571,0.13429701032608654,20.0,38.240891082870377,10.503975,-16.3658583333,GNB,62000.0,10.6800316667,-16.3423833333,GNB,43000.0,2021-03-13 15:37:00.000000 UTC,2021-04-08 07:20:59.000000 UTC,412209197-0069639f1-1b76-f441-db80-7bd4d6f7f9e2-01782c3bcd60
224733000,ESP,MAR DE SERGIO,8212075,EHNB,tuna_purse_seines,fishing,0,0.00746,469190,6244f7202b6d0a3dab05dbbbc88ecc86,2020-04-01 08:52:51.000000 UTC,2020-04-13 15:36:55.000000 UTC,294.73333333333335,2202849.4062322536,4.0356599996047482,28.0,426.51497574666996,-1.4549383333,-3.438875,,703000.0,10.0084666667,-19.669035,,376000.0,2020-02-23 14:52:37.000000 UTC,2020-04-21 12:07:35.000000 UTC,224733000-e02eef255-5cad-9bd0-fb32-3c1a9b6690ab-017072892b08
412440533,CHN,,,,trawlers,SEN_additions,0,0.00035,53,d9e9c70a09a34d43a65a8c86fd9c55d8,2019-11-02 15:24:08.000000 UTC,2019-11-03 15:01:06.000000 UTC,23.6,5884.9508246412324,0.13464488287150017,434.63333333333338,476.05422164969605,-26.3181233333,33.1184066667,MOZ,19000.0,-26.2933366667,33.0662433333,MOZ,14000.0,2018-07-14 05:46:35.000000 UTC,2020-02-08 19:06:16.000000 UTC,412440533-040d785ed-d50b-ed8c-459d-0ecb30abecb8-016497539678
224266000,ESP,FUNCHO,9230701,EAUS,trawlers,fishing,0,0.00324,1818508,4c5464a84aa08bb9054f86840668509e,2020-02-19 07:13:00.000000 UTC,2020-02-19 19:22:53.000000 UTC,12.15,22284.302960225355,0.99033423815985178,180.22500000000002,360.11932285667672,9.9641133333,-16.6906533333,GNB,131000.0,10.10088,-16.8394133333,GNB,125000.0,2020-01-23 14:30:09.000000 UTC,2020-02-24 12:28:06.000000 UTC,224266000-57dd14963-3bd9-68f8-21e1-dd80df39b7b2-016fd2cf7568
224727000,ESP,F/V ALBACORA QUINCE,8206296,EDUS,tuna_purse_seines,fishing,0,0.0,163771,e87c967fbbffe4214eafd6463425899b,2020-06-01 17:18:40.000000 UTC,2020-06-13 19:36:00.000000 UTC,290.28333333333336,114010.4801616316,0.21207119858251169,212.0,380.26079630438335,16.06417,-18.7103183333,SEN,192000.0,15.85199,-17.666985,SEN,108000.0,2020-05-09 10:10:03.000000 UTC,2020-06-15 09:13:11.000000 UTC,224727000-83487d338-8fba-2645-7342-563c4cb5611f-0171f8e9c878
663071000,SEN,DAK1178,,6WJG,trawlers,fishing,0,0.0066,37497,c0f0904cc75345305d4457047f8f9512,2020-06-21 16:21:02.000000 UTC,2020-06-23 21:06:08.000000 UTC,52.75,64862.697542523863,0.663944167366381,28.0,35.556716543156654,15.6011816667,-16.8444266667,SEN,18000.0,15.1475983333,-17.2248216667,SEN,22000.0,2020-06-08 04:50:55.000000 UTC,2020-06-24 02:55:11.000000 UTC,663071000-9a9c61e8b-b784-4804-9005-c06e2f03c839-017292446398
412209197,CHN,YANGMING8005,,,fishing,fishing,0,0.0,58685,2a43db1abcfc80da1ce3b535b2ea074c,2021-05-01 18:13:09.000000 UTC,2021-05-19 21:36:00.000000 UTC,435.36666666666667,35719.683177052029,0.044300786958270111,20.0,51.565340375492724,11.5322666667,-17.0001016667,GNB,61000.0,11.2435066667,-16.85653,GNB,41000.0,2021-04-30 23:09:43.000000 UTC,2021-05-25 06:37:00.000000 UTC,412209197-0069639f1-1b76-f441-db80-7bd4d6f7f9e2-0179250b86d8
306094000,BES,ALBACORA  NUEVE,7403639,PJXU,tuna_purse_seines,fishing,0,0.0,171022,6d9916339609a3501e5f2da3dd8845da,2020-08-07 14:58:35.000000 UTC,2020-09-09 11:27:45.000000 UTC,788.48333333333335,2203132.65496612,1.5087147891070551,100.0,376.3235289457225,16.6318133333,-19.9619466667,CPV,295000.0,4.6076266667,-3.9055733333,CIV,68000.0,2020-07-29 16:05:02.000000 UTC,2020-09-09 15:26:49.000000 UTC,306094000-a3f5a79fc-cafd-1317-8215-f6c466c191a2-01739b51e3b0
663000300,SEN,OCEAN PESCA 3,0,6WGA,trawlers,fishing,0,0.0,270936,94d781e31150f682b3873194d2d318cd,2020-01-17 06:02:56.000000 UTC,2020-01-18 09:33:39.000000 UTC,27.5,149716.65839374118,2.9396555741948007,59.583333333333336,336.60844491782655,12.1190666667,-17.3595733333,SEN,71000.0,10.7766666667,-17.2533333333,GNB,101000.0,2020-01-16 21:19:45.000000 UTC,2020-02-08 04:36:53.000000 UTC,663000300-3e15147a0-078d-40b1-ee20-3b798be23240-016fb039f168
663179000,SEN,F\V SONA,0,,trawlers,fishing,0,0.00202,754954,69b0fcdfcf9117efd4ebbef57057187f,2019-04-26 23:09:26.000000 UTC,2019-05-08 16:54:46.000000 UTC,281.75,260957.96210013103,0.50011012263320886,332.0,237.36689242177681,13.0449633333,-17.2154633333,SEN,48000.0,15.3876733333,-17.0717533333,SEN,26000.0,2019-04-25 11:30:17.000000 UTC,2019-05-10 02:18:26.000000 UTC,663179000-ccb90e6a3-32a1-cc1f-e6a3-0966118eb416-016a5442ad28
225459000,ESP,PLAYA DE RIS,9684548,EAKV,tuna_purse_seines,fishing,0,0.0,549465,baa16d0c2dc1df419bb99c1fea49c9c3,2019-05-21 06:36:39.000000 UTC,2019-06-07 19:35:08.000000 UTC,420.96666666666664,929969.85011280538,1.1928344625317335,908.0,332.86058596910965,12.1209416667,-27.5728166667,,427000.0,12.0084383333,-19.0209333333,SEN,247000.0,2019-05-20 07:53:55.000000 UTC,2019-06-13 06:15:53.000000 UTC,225459000-31187f85c-c346-1ffa-70f8-888a0f7e7fa8-016ad43b9238
224709000,ESP,MONTEMAIOR,7817323,EHTT,tuna_purse_seines,fishing,0,0.0012,286887,96ae8bd869d30a5de9bb9223cbb46f3e,2020-04-11 07:49:59.000000 UTC,2020-05-08 14:59:09.000000 UTC,655.15,248453.43575117434,0.204768561361209,216.0,396.99597565051431,0.7904666667,-1.6802,,439000.0,-1.3189333333,-0.9433066667,,684000.0,2020-04-09 19:45:05.000000 UTC,2020-05-10 07:58:21.000000 UTC,224709000-2f3be0589-99d7-c504-7172-ea324b4766b0-0171607975e8
224431000,ESP,KURTZIO,7385461,EAUN,tuna_purse_seines,fishing,0,0.0,649405,3b8bb753b6dfe8bcc33a46ae70c60781,2020-02-25 06:30:56.000000 UTC,2020-02-26 09:11:21.000000 UTC,26.666666666666668,33479.243997727441,0.67790045891726736,357.77777777777783,390.66354054548162,1.003395,-8.9878333333,,398000.0,1.1786183333,-8.7429433333,LBR,370000.0,2020-02-18 19:28:17.000000 UTC,2020-03-16 06:04:09.000000 UTC,224431000-6ed4f138c-c178-85cf-a26c-2851bcf6eac0-017059c5c068
663179000,SEN,F\V SONA,0,,trawlers,fishing,0,0.00202,754954,1eb5ea9e865b85d2c515975423e974d3,2019-07-05 13:56:17.000000 UTC,2019-07-10 07:31:16.000000 UTC,113.56666666666666,107691.09668584049,0.51202119454471107,420.0,253.98824841000146,15.98184,-16.8562666667,SEN,36000.0,15.07,-17.195,SEN,15000.0,2019-07-03 12:50:00.000000 UTC,2019-07-25 05:23:18.000000 UTC,663179000-ccb90e6a3-32a1-cc1f-e6a3-0966118eb416-016bb7e274c0
416035800,TWN,CHIN SIANG WEN,,BH3284,drifting_longlines,fishing,0,0.00101,207325,7bae614c081557a7bd7d649a383fe0ca,2019-07-09 18:36:01.000000 UTC,2019-07-27 19:56:35.000000 UTC,433.33333333333331,385929.77139611787,0.48088939781872136,204.0,55.044178719754768,-8.6977933333,-19.1726483333,,529000.0,-5.293585,-18.4911333333,,535000.0,2018-04-13 16:42:49.000000 UTC,2019-08-30 12:30:26.000000 UTC,416035800-6025d042e-e8c3-55c0-dc9d-2fe9ce105d47-0162bfe35328
416060900,TWN,CHIN CHANG MING,,,drifting_longlines,fishing,0,0.0,98497,0b44156c018f217d007c1dd2ba4dbd12,2019-06-10 13:22:03.000000 UTC,2019-06-12 16:46:45.000000 UTC,51.4,22227.271549351539,0.23349740263288338,212.0,57.114541690839161,-9.3278383333,-22.7903533333,,933000.0,-9.41188,-22.974175,,954000.0,2018-08-10 12:53:50.000000 UTC,2019-08-30 06:33:48.000000 UTC,416060900-92844d659-9c82-f0ca-2010-896273000a25-016523e67330
354747000,PAN,MONTECLARO,8829440,HO2095,purse_seine_support,support,0,0.0,289321,38bfa1b4a3a4f0e674c4f2f8967257bf,2020-03-27 05:21:50.000000 UTC,2020-03-31 19:56:05.000000 UTC,110.56666666666666,414899.4270109153,2.0261781884030006,532.0,373.17555865855638,1.3920083333,-0.69422,,400000.0,-2.1543366667,0.4660966667,,576000.0,2020-03-25 17:25:27.000000 UTC,2020-04-19 19:32:01.000000 UTC,354747000-c98f8b2e7-733c-f6b2-bf0f-d6346cf972cf-017112ba3b58
224032270,ESP,ALFONSO RIERA SEGUND,9175377,EAQQ,trawlers,fishing,0,0.00082,1753826,3fe0174fb264c187a84d095815e683e0,2020-03-08 21:46:26.000000 UTC,2020-03-09 06:17:55.000000 UTC,8.5166666666666675,23674.105305900277,1.5009386566318705,149.7513888888889,376.24400524083603,9.9963783333,-16.930345,GNB,140000.0,9.9186416667,-16.7291066667,GNB,137000.0,2020-02-26 11:42:17.000000 UTC,2020-03-26 05:50:49.000000 UTC,224032270-ebdafaa65-595c-2373-4337-eaf2cebdadae-0170814dfda8
663092000,SEN,SOKONE,0,6WKG,trawlers,fishing,0,0.0,1165656,3d2ea1d9e09de81aff3c0e66de76dc8c,2020-03-15 12:22:04.000000 UTC,2020-03-15 23:15:49.000000 UTC,10.883333333333333,21217.04700123208,1.052645226115325,29.022222222222222,313.48431108660532,15.6827466667,-16.9952266667,SEN,37000.0,15.4941616667,-17.025385,SEN,28000.0,2020-03-04 22:28:29.000000 UTC,2020-03-18 06:16:32.000000 UTC,663092000-59d7c9fd1-194e-8625-e59e-349a2d0b9d63-0170a7aa1ec8
412330947,CHN,MOONIKA 1,,6WML,fishing,fishing,4,0.00137,104869,b60bd0de99bbaeb872216096eaf1c33b,2020-03-21 08:02:04.000000 UTC,2020-03-28 17:28:18.000000 UTC,177.43333333333334,9255.8783796976622,0.02816705524935088,40.0,32.945298964341646,12.694155,-17.5717183333,SEN,85000.0,12.7206416667,-17.4908233333,SEN,76000.0,2020-03-14 15:06:52.000000 UTC,2020-04-06 13:56:17.000000 UTC,412330947-728f15e90-0a8d-6f8b-692b-22c6f0861ff1-0170d99566e0
663101000,SEN,,,,trawlers,fishing,0,0.00284,196,af9379c9691be0c04d7c088e54227074,2019-01-08 13:08:09.000000 UTC,2019-01-08 19:56:46.000000 UTC,6.8,1031.0181631148384,0.081868422302982344,64.033333333333331,220.03431416856847,15.61904,-17.08328,SEN,41000.0,15.6124316667,-17.0765266667,SEN,40000.0,0001-02-03 00:00:00.000000 UTC,2019-09-23 17:02:14.000000 UTC,663101000-5d3c81a7c-c786-88ab-f478-b62bec5f97e3--3882683afc00
412440617,CHN,FU YUAN YU 9813,,00,fishing,SEN_additions,57,0.00901,144692,80bdba95e3ec7dd81c22a88373052774,2021-11-08 17:36:19.000000 UTC,2021-11-09 05:43:55.000000 UTC,12.116666666666667,14559.327261821178,0.64880944776550775,27.262500000000003,34.193624408162179,12.136275,-17.2511316667,SEN,59000.0,12.2549316667,-17.194495,SEN,48000.0,2021-10-17 02:15:44.000000 UTC,2021-11-14 18:39:02.000000 UTC,412440617-c9027de61-12dd-124e-b90a-7ff3932ddfa2-017c8c089080
654014800,MRT,RIMBAL 2,0,5T924,trawlers,fishing,0,0.0,55808,f8aa66eafec5caae5b7d84aadab2a9ca,2020-08-06 19:58:59.000000 UTC,2020-08-07 22:13:46.000000 UTC,26.233333333333334,55129.767413054062,1.1347278140130947,194.5638888888889,320.96858795559092,20.6954933333,-17.23232,ESH,19000.0,20.2782833333,-17.5182616667,MRT,73000.0,2020-08-06 18:50:45.000000 UTC,2020-09-30 15:59:23.000000 UTC,654014800-f442e193d-dd0b-138b-42ea-6f9a46a8525e-0173c51c7b88
619000210,CIV,,,,non_fishing,SEN_additions,0,0.0,8,6ba84a23e8448e8f02a752d3dce4cda3,2020-01-12 17:45:03.000000 UTC,2020-01-25 07:40:20.000000 UTC,301.91666666666669,11853.763489869682,0.021199625425040669,64.0,26.976779180206535,14.11933,-17.408935,SEN,53000.0,14.02716,-17.464155,SEN,63000.0,0001-02-03 00:00:00.000000 UTC,2020-10-28 14:34:53.000000 UTC,619000210-7c97926e3-3eee-db79-503b-c2d6900a28ec--3882683afc00
247083500,ITA,PEGASO Q,0,IZMP,trawlers,fishing,0,0.0,151411,e28d576f02f95a11618aded7309ebde9,2020-07-11 16:08:40.000000 UTC,2020-08-18 07:42:50.000000 UTC,903.56666666666672,1044130.2900846577,0.62395534787185125,40.0,382.48373620851385,6.9034666667,-12.00384,SLE,31000.0,14.6718883333,-17.37833,SEN,5000.0,2020-07-10 14:52:56.000000 UTC,2020-08-18 07:54:59.000000 UTC,247083500-1da463c70-0a5a-4551-698d-e9243f63b3c9-017339370d40
341171000,KNA,FENG 95,8814237,V4LP4,carrier,carrier,0,0.0,168571,383795f566ef24173736571ebf243c3d,2020-07-10 12:05:09.000000 UTC,2020-07-20 18:25:23.000000 UTC,246.33333333333334,76238.552329683938,0.16711309208130462,24.0,30.698729271393859,25.4154133333,56.5814066667,ARE,22000.0,26.0367716667,56.9031266667,IRN,28000.0,0001-02-03 00:00:00.000000 UTC,2021-07-25 16:28:07.000000 UTC,341171000-5fe225476-6a9a-6e4d-efea-d68fc98f7e11--3882683afc00
412370006,CHN,HAI SHANG28,0,BIWI,drifting_longlines,fishing,0,0.0002,261252,3c09618d7b48f0d792aaf40a9f5c9ba4,2019-04-06 12:52:12.000000 UTC,2019-04-06 20:02:39.000000 UTC,7.166666666666667,18284.822264259325,1.3776298857998386,62.111111111111114,328.89787388148557,9.1139466667,-37.65072,,1351000.0,8.952,-37.6796,,1333000.0,2018-10-01 17:15:05.000000 UTC,2019-06-24 13:24:22.000000 UTC,412370006-f403cafce-e3c9-8c65-113f-e8ef1a348196-016630a051a8
312557000,BLZ,AVEN,9276080,V3ZX5,non_fishing,SEN_additions,32,0.06398,408155,2beac2c1d7185d6a7cb4b5a2dea6040d,2019-05-05 09:56:04.000000 UTC,2019-05-05 18:46:17.000000 UTC,8.8333333333333339,91818.4911518839,5.6126059223206264,123.66666666666667,315.97935854907718,8.3732033333,-22.1638283333,,701000.0,7.5671466667,-21.98285,,730000.0,2019-04-28 10:25:13.000000 UTC,2019-05-17 15:45:10.000000 UTC,312557000-8fd5135d4-4d2f-bf47-5df5-a57c26d12173-016a637a2f28
412201809,CHN,LONG XING 622,,,drifting_longlines,fishing,0,0.00011,365309,bd9ff1ad86e4d8bdc4b8aa9bb2158d7a,2019-05-26 23:47:01.000000 UTC,2019-05-27 06:34:40.000000 UTC,6.7833333333333332,27113.5215827727,2.158250188343251,21.480555555555554,50.920561008781362,-9.4477366667,-7.896405,,724000.0,-9.4912116667,-7.65316,,740000.0,2018-09-20 07:13:06.000000 UTC,2019-09-08 07:50:26.000000 UTC,412201809-c1c95891a-a682-597a-2e17-eb98bdb0e081-0165f5d33bd0
663147000,SEN,WESTERN KIM,8003242,6 W L N,tuna_purse_seines,fishing,0,0.00295,1057124,c00a65f12a3ac6957ee80c1a65184440,2020-05-19 09:16:11.000000 UTC,2020-05-20 08:04:48.000000 UTC,22.8,377064.80921219359,8.92976794201133,311.6,393.98701001411609,7.663865,-15.79977,SLE,284000.0,6.8194133333,-12.4891316667,SLE,60000.0,2020-05-06 21:47:50.000000 UTC,2020-06-08 12:35:06.000000 UTC,663147000-533b66199-97c7-6692-46eb-606f43936f4d-0171ebf58b70
663220000,SEN,MASEOUD3,0,6WMZ,trawlers,SEN_additions,0,0.00273,923453,6da694b7851901f036a1bb637ae021b5,2020-05-23 19:24:20.000000 UTC,2020-05-24 07:38:32.000000 UTC,12.233333333333333,19104.098401993338,0.84321971984010236,230.39444444444442,363.55300246179081,12.6028016667,-17.3874033333,SEN,65000.0,12.7654783333,-17.3307583333,SEN,59000.0,2020-05-19 11:36:43.000000 UTC,2020-06-05 13:37:42.000000 UTC,663220000-bed660dba-a8c8-eaf9-192e-c67d3f1718a4-01722cb8b8f8
663138000,SEN,SOFIA,0,6WLE,trawlers,fishing,0,0.00595,1065173,07049da279678af55ef826946fdbac6c,2019-02-17 06:10:07.000000 UTC,2019-02-17 17:13:18.000000 UTC,11.05,2078.8825421019496,0.1015843232754097,87.479166666666671,222.67501415931656,11.3785116667,-17.3573933333,GNB,96000.0,11.3600933333,-17.35412,GNB,95000.0,2019-01-31 00:10:06.000000 UTC,2019-03-10 15:47:09.000000 UTC,663138000-36d3cd4c0-0901-e0f8-4f7b-f8c0e630c60d-0168a13dc330
224733000,ESP,MAR DE SERGIO,8212075,EHNB,tuna_purse_seines,fishing,0,0.00746,469190,7bb7acb96b19b7ec92f952a42869d800,2020-11-01 04:17:43.000000 UTC,2020-11-21 10:45:10.000000 UTC,486.45,1178798.2903782511,1.3084595678727768,72.0,467.19856905181064,2.7901066667,-12.2437333333,,414000.0,6.1801333333,-22.3206933333,,855000.0,2020-10-27 16:39:20.000000 UTC,2020-11-27 05:59:42.000000 UTC,224733000-e02eef255-5cad-9bd0-fb32-3c1a9b6690ab-01756aeda2c0
224733000,ESP,MAR DE SERGIO,8212075,EHNB,tuna_purse_seines,fishing,0,0.00746,469190,2cff9afd6b7a0b12aaa6bede4464f090,2020-04-14 07:51:29.000000 UTC,2020-04-20 15:17:11.000000 UTC,151.41666666666666,970322.81301791465,3.4602030012371094,524.0,399.59489427564336,10.7564983333,-18.3912483333,GNB,216000.0,14.1029666667,-26.6454916667,CPV,219000.0,2020-02-23 14:52:37.000000 UTC,2020-04-21 12:07:35.000000 UTC,224733000-e02eef255-5cad-9bd0-fb32-3c1a9b6690ab-017072892b08
332001000,GTM,SANT YAGO TRES,8919427,TGSY3,tuna_purse_seines,fishing,0,0.0,549747,0d1333372df3e24744a50ec15089ebbd,2021-01-18 15:05:02.000000 UTC,2021-01-26 23:37:53.000000 UTC,200.53333333333333,42340.019168365048,0.1140048939913786,96.0,377.8960849463258,0.95907,-4.7003816667,,463000.0,1.2516666667,-4.4566666667,,433000.0,2021-01-09 08:52:08.000000 UTC,2021-01-27 19:29:53.000000 UTC,332001000-e2d464a53-35ed-f059-c7e2-1ac76e12c9cc-0176e6587ec0
271002430,TUR,DENIZER,9331036,TCA2379,other_purse_seines,fishing,0,0.00086,82207,0062bfbd1fa30667b8e4eecccc0eff5a,2020-02-13 12:31:16.000000 UTC,2020-02-13 20:39:42.000000 UTC,8.1333333333333329,53554.677560272154,3.5553949801901461,23.722222222222218,329.33331692706622,13.59368,-17.1409333333,SEN,43000.0,14.0690633333,-17.2205483333,SEN,39000.0,2020-02-13 01:01:13.000000 UTC,2020-02-14 00:00:32.000000 UTC,271002430-449ae8ff6-6c93-e419-a9aa-298aa96ae473-01703c1067a8
306034000,BES,PACIFIC STAR,8716837,PJEW,tuna_purse_seines,fishing,0,0.0003,245012,a284c1575213d32a622c58ed16cd1893,2019-07-31 15:29:08.000000 UTC,2019-08-03 10:27:26.000000 UTC,66.966666666666669,137500.771505174,1.1086781043498692,96.0,258.2554968647712,16.38496,-17.5810933333,MRT,113000.0,17.5008,-17.0239733333,MRT,92000.0,2019-07-27 07:12:24.000000 UTC,2019-08-22 05:38:21.000000 UTC,306034000-9d80172ad-d958-7781-b799-5b5874643ba1-016c3245ffc0
224468000,ESP,VILLA DE MARIN,9175365,EADK,trawlers,fishing,0,0.00373,1637209,a2902c61b105f85afeaf1248c0e72a79,2019-06-14 06:50:02.000000 UTC,2019-06-14 21:02:12.000000 UTC,14.2,71856.9110055606,2.73236816709612,55.616666666666667,277.80131702096185,13.6910816667,-17.478215,SEN,79000.0,14.3296433333,-17.580475,SEN,39000.0,2019-05-26 18:55:02.000000 UTC,2019-06-20 16:37:46.000000 UTC,224468000-a343301d6-67f8-d5d1-466d-ebe18d0c0f65-016af57eff70
225459000,ESP,PLAYA DE RIS,9684548,EAKV,tuna_purse_seines,fishing,0,0.0,549465,4b56fb741bdd829214ec7b3bcca276cb,2019-06-12 06:35:16.000000 UTC,2019-06-13 01:43:59.000000 UTC,19.133333333333333,66266.463420572065,1.8700885591404734,248.73333333333332,281.89293514730389,14.340995,-18.44936,SEN,108000.0,13.923135,-18.01119,SEN,102000.0,2019-05-20 07:53:55.000000 UTC,2019-06-13 06:15:53.000000 UTC,225459000-31187f85c-c346-1ffa-70f8-888a0f7e7fa8-016ad43b9238
663192000,SEN,OCEAN PESCA 3,0,6WGA,trawlers,fishing,0,0.0,50573,abb50b071fa141cddfdd925a1ca98059,2021-05-22 18:25:27.000000 UTC,2021-05-23 07:38:04.000000 UTC,13.2,109275.31480014579,4.4699961875836847,55.0,339.40095883760364,15.0723583333,-17.4221066667,SEN,29000.0,15.9516666667,-16.9666666667,SEN,48000.0,2021-05-22 14:12:03.000000 UTC,2021-06-22 10:34:35.000000 UTC,663192000-9a56266bd-dfae-28de-2060-8eb1a47be87f-0179946b2f38
224742000,ESP,MONTERAIOLA,9882009,EADI,tuna_purse_seines,fishing,0,0.0,196093,6dc978ca9525e468e381daf596465a2b,2021-05-17 08:38:40.000000 UTC,2021-05-17 19:59:45.000000 UTC,11.35,181264.51070113835,8.6233485267094672,348.06666666666666,343.1561942993651,19.91296,-19.088755,ESH,231000.0,18.3354016667,-18.6540216667,MRT,249000.0,2021-05-07 11:50:01.000000 UTC,2021-06-03 06:46:51.000000 UTC,224742000-c44bf0cee-e97e-f9c4-3c32-97d90554b144-017946a9c228
412331136,CHN,KIRSA 058,,UBZN3,fishing,fishing,0,0.0,10994,483eb4ee3710de223fc2410e569dc68f,2020-10-12 11:26:26.000000 UTC,2020-10-12 18:02:18.000000 UTC,6.583333333333333,30748.098664191686,2.5219207696797183,95.458333333333329,408.67721507368719,10.5181133333,-16.292855,GNB,58000.0,10.71552,-16.4898666667,GNB,48000.0,2017-12-22 05:22:48.000000 UTC,2021-01-01 09:56:59.000000 UTC,412331136-25c4d6159-941b-8273-7a6e-2a176c660978-01607cac8040
271008508,TUR,ORUC REIS BALIKCILIK,9089554,TC7390,other_purse_seines,fishing,0,0.0,37734,9a883719d200078fcfd5537b07946be5,2020-10-27 16:10:05.000000 UTC,2020-10-28 10:48:09.000000 UTC,18.633333333333333,263201.25136318023,7.6270468525013877,231.36388888888891,350.15574322959424,17.70248,-16.28248,MRT,23000.0,15.7482666667,-17.6771733333,SEN,102000.0,2013-11-08 16:57:29.000000 UTC,2020-10-28 20:50:12.000000 UTC,271008508-484936bf5-5036-fbc9-83f9-d45992d308d4-014238a5a4a8
654014700,MRT,RIMBAL 1,0,5T923,trawlers,fishing,0,0.0,39088,5b364c095767faa78eb5c92531c6a6d2,2020-08-28 00:36:34.000000 UTC,2020-08-29 15:24:55.000000 UTC,38.8,351690.18809153803,4.8942657156868314,423.56666666666661,320.96858795559092,20.3135016667,-17.3170166667,MRT,58000.0,17.2716666667,-16.4016666667,MRT,22000.0,2020-08-27 21:15:26.000000 UTC,2020-09-06 18:24:52.000000 UTC,654014700-e15c49bc7-7355-8397-5000-46af1e107d6d-017431c67db0
663161000,SEN,,,,drifting_longlines,fishing,0,0.0,45,2dcb138b8e3fff5bf2806d4c10541242,2020-01-05 09:26:45.000000 UTC,2020-01-09 16:43:21.000000 UTC,103.26666666666667,8870.3716046895133,0.046381060333756295,688.0,46.505472009978178,9.0587283333,-30.703745,,909000.0,8.9805016667,-30.6879183333,,914000.0,2018-12-08 12:04:23.000000 UTC,2021-05-03 01:08:22.000000 UTC,663161000-0e057df78-89cd-015d-82c6-8ca8faf18214-01678db44d58
412371179,CHN,HAISHANG78,0,BZ7UW,drifting_longlines,fishing,0,0.00116,485587,380fc9ead6372a6bed0f4a62d705887d,2019-04-02 23:11:46.000000 UTC,2019-04-03 06:45:09.000000 UTC,7.55,33830.22214721096,2.4194514716298086,47.816666666666663,332.51212092369951,7.9089766667,-37.5243733333,,1224000.0,7.8379066667,-37.2257333333,,1224000.0,2018-10-27 14:30:09.000000 UTC,2019-09-10 07:35:08.000000 UTC,412371179-5304d2030-0514-c5e9-f01b-0ee1cfeacc13-0166b5eea968
412440613,CHN,FU YUAN YU 9809,,00,non_fishing,SEN_additions,0,0.0,70651,dfd6f06de1bbc6a553da46c082e9a026,2021-03-11 03:34:09.000000 UTC,2021-04-05 13:13:08.000000 UTC,609.63333333333333,26471.464104083181,0.023445973766362867,32.0,26.706644670913789,14.5393083333,-17.3738383333,SEN,15000.0,14.3045666667,-17.33292,SEN,34000.0,2021-03-11 03:34:09.000000 UTC,2021-04-05 15:00:38.000000 UTC,412440613-471be76a9-96be-3055-75d0-9a6a4c2ca0b6-01781f594b68
224266000,ESP,,,,trawlers,fishing,0,0.00741,421,8ff4d4d0070ba7d022a245c6a61b73f1,2019-02-27 13:29:38.000000 UTC,2019-03-05 18:56:34.000000 UTC,149.43333333333334,275305.47346647066,0.99477847486161053,376.0,176.63679257060676,18.1471483333,-16.4946233333,MRT,48000.0,20.5567566667,-17.097755,MRT,24000.0,2014-05-04 17:50:23.000000 UTC,2019-09-02 10:56:12.000000 UTC,224266000-a19dc6ec2-2d46-efbf-e1b9-860840fe372f-0145c85baf18
306120000,BES,PATUDO,9276092,PJCF,purse_seine_support,support,0,0.0,424951,c3817c23be5f91363571119e472557f6,2021-09-19 05:21:11.000000 UTC,2021-09-20 00:15:09.000000 UTC,18.883333333333333,47420.522047628037,1.3559594088105329,535.02777777777771,362.68948739196151,-0.7397816667,8.216615,GAB,54000.0,-1.1463783333,8.0879533333,GAB,84000.0,2021-09-16 17:01:29.000000 UTC,2021-10-09 07:27:21.000000 UTC,306120000-d926ad87c-cc41-d02b-bd24-c128da4578c7-017bef8e5a28
412331135,CHN,LU QING YUAN YU 057,,UBZN2,fishing,fishing,0,0.0,28589,a100e410c8740300efc97c238caa7589,2021-09-04 18:34:52.000000 UTC,2021-09-05 18:05:17.000000 UTC,23.5,309725.26896591386,7.1165219651191087,78.333333333333329,40.069680166156445,14.08285,-17.321555,SEN,48000.0,11.7172033333,-15.8128816667,GNB,4000.0,2021-09-04 15:24:35.000000 UTC,2021-10-12 08:58:40.000000 UTC,412331135-a3fdbd55a-a6f5-36d3-8bc4-ed7d833c3532-017bb1695338
663138000,SEN,SOFIA,0,6WLE,trawlers,fishing,0,0.00595,1065173,f52d3395cd638b6dd9ce1289d70f738a,2019-03-02 10:45:05.000000 UTC,2019-03-03 09:21:30.000000 UTC,22.6,7089.1111949990018,0.16937229292893122,169.50000000000003,239.90316818504169,10.7729333333,-17.3346666667,GNB,108000.0,10.83667,-17.3361716667,GNB,106000.0,2019-01-31 00:10:06.000000 UTC,2019-03-10 15:47:09.000000 UTC,663138000-36d3cd4c0-0901-e0f8-4f7b-f8c0e630c60d-0168a13dc330
412270058,CHN,JIN SHENG NO.7,8652729,BZSX4,drifting_longlines,fishing,0,0.00562,860322,a8c6cc830f0482102222c5687cb2d9d6,2019-06-18 16:47:59.000000 UTC,2019-06-19 00:35:58.000000 UTC,7.7833333333333332,180482.32484425785,12.520684265931004,44.105555555555554,332.48793108025325,-3.9140666667,-17.6281666667,,567000.0,-3.7406666667,-19.2456,,706000.0,2018-10-07 07:30:09.000000 UTC,2019-09-25 13:08:07.000000 UTC,412270058-58decf33e-ea8e-d8d9-6f49-f80075b42187-01664d6ef3e8
412440613,CHN,FU YUAN YU 9809,,00,non_fishing,SEN_additions,0,0.0,70651,62f6dd3332ee5af834c94429d9800418,2020-06-13 03:57:39.000000 UTC,2020-06-14 03:54:38.000000 UTC,23.933333333333334,127895.92229255267,2.8854431772747224,31.911111111111111,42.594239890675453,12.9151366667,-17.3558283333,SEN,64000.0,11.8422433333,-16.9314116667,GNB,60000.0,2020-06-12 17:30:20.000000 UTC,2020-07-04 21:27:03.000000 UTC,412440613-471be76a9-96be-3055-75d0-9a6a4c2ca0b6-0172a99517e0
441483000,KOR,ORYONG NO801,8909604,DTBU7,drifting_longlines,fishing,0,0.00369,3032470,3b098f27f181871e49f1398906d86747,2020-03-30 20:50:20.000000 UTC,2020-03-31 07:25:52.000000 UTC,10.583333333333334,159024.88476121536,8.1133765460391167,313.97222222222223,746.18856763703866,-31.39985,14.1438683333,ZAF,322000.0,-32.30936,15.44328,ZAF,232000.0,2020-01-13 10:20:11.000000 UTC,2020-04-01 07:28:11.000000 UTC,441483000-4bd635d60-044a-11c2-b372-4816cb243b9e-016f9e6b0378
629100290,GMB,SAGE,,C5J82,drifting_longlines,fishing,0,0.0,24831,46a06a6edf2974b2c4c22005618e5f79,2020-03-29 01:51:46.000000 UTC,2020-03-30 02:21:53.000000 UTC,24.5,84309.5205721589,1.8581020093480607,253.16666666666666,60.169153711921609,8.23275,-32.9387866667,,1152000.0,8.93343,-32.64579,,1079000.0,2020-03-16 22:09:11.000000 UTC,2020-04-06 10:20:22.000000 UTC,629100290-b6be676ae-e33f-c572-740c-aab8316c771e-0170e564c358
412370006,CHN,HAI SHANG28,0,BIWI,drifting_longlines,fishing,0,0.0002,261252,173bedfc9bb3c30a4edd5303544bc0e1,2019-01-22 02:20:04.000000 UTC,2019-01-22 14:04:38.000000 UTC,11.733333333333333,199067.9909236808,9.1609189814917915,111.46666666666665,313.58960969386271,5.009225,-32.76514,,979000.0,4.4546033333,-34.47315,,945000.0,2018-10-01 17:15:05.000000 UTC,2019-06-24 13:24:22.000000 UTC,412370006-f403cafce-e3c9-8c65-113f-e8ef1a348196-016630a051a8
412549197,CHN,GUOJIN908,,,trawlers,fishing,0,0.0,129647,cca54844751bd6fe027896e2ce4adc32,2020-10-28 19:14:10.000000 UTC,2020-10-30 07:18:16.000000 UTC,36.06666666666667,86490.633671464442,1.2948578397256165,201.37222222222223,43.33328332823703,11.2371683333,-16.954755,GNB,51000.0,10.7139983333,-16.3684333333,GNB,41000.0,2020-10-05 19:18:34.000000 UTC,2020-10-31 09:35:37.000000 UTC,412549197-b1746e808-87ff-d6f5-bd85-255ca80d9d1a-0174fa338310
312418000,BLZ,NAVIGATOR,9139610,V3RB9,trawlers,SEN_additions,0,0.0,820201,26c99db3532d8ba19209049fb1657222,2019-12-09 15:55:42.000000 UTC,2019-12-14 02:12:00.000000 UTC,106.26666666666667,293686.75111027894,1.4922662422848454,460.0,255.46121037929879,17.25328,-16.7291733333,MRT,54000.0,19.8388533333,-17.2979033333,MRT,72000.0,2019-12-04 22:35:16.000000 UTC,2019-12-14 12:50:11.000000 UTC,312418000-3553fcb95-5b43-dc95-1167-497568e7d425-016ed30da0a0
224896000,ESP,PILAR TORRE,9154361,EAIQ,,SEN_additions,0,0.0,884017,30dc39a81f92fa205cb0d4cfeae5ef57,2021-10-30 15:50:34.000000 UTC,2021-10-31 19:01:38.000000 UTC,27.183333333333334,75959.3676276242,1.5088207481323164,525.54444444444448,349.51461719937993,19.3037166667,-17.92921,MRT,145000.0,18.6624516667,-17.6802333333,MRT,143000.0,2021-10-21 14:56:33.000000 UTC,2021-11-10 20:48:27.000000 UTC,224896000-b8f7f1240-0e98-18c8-b3c7-9b5c0d818d7b-017ca35a8ce8
332154000,GTM,SANT YAGO UNO,8919439,TGQU,tuna_purse_seines,fishing,0,0.00027,422131,d10b75de3e3793c2548a7c284d7148c9,2020-07-01 06:36:15.000000 UTC,2020-07-02 07:14:55.000000 UTC,24.633333333333333,267276.85019860632,5.8586449392809365,285.33611111111111,336.1421041853414,18.2850783333,-17.4433916667,MRT,143000.0,19.5632583333,-19.5954416667,MRT,296000.0,2020-06-26 20:55:13.000000 UTC,2020-07-27 14:21:43.000000 UTC,332154000-341e34398-89a5-f543-c6fc-3d28f9b3711f-0172f269b368
247083500,ITA,PEGASO Q,0,IZMP,trawlers,fishing,0,0.0,151411,96ffa96b119cbdd2f4c29bf9e9792102,2019-10-13 17:48:21.000000 UTC,2019-10-15 04:31:20.000000 UTC,34.7,43190.53321314323,0.67207556925985812,138.8,280.70061034351386,8.7342433333,-13.4164883333,SLE,19000.0,8.9598133333,-13.7365066667,GIN,47000.0,2019-10-13 16:44:04.000000 UTC,2019-10-16 16:30:50.000000 UTC,247083500-1da463c70-0a5a-4551-698d-e9243f63b3c9-016dc6016820
224727000,ESP,F/V ALBACORA QUINCE,8206296,EDUS,tuna_purse_seines,fishing,0,0.0,163771,1ee18228a89f17ea53bef3119bd475ce,2020-05-19 10:42:56.000000 UTC,2020-05-20 20:51:32.000000 UTC,34.133333333333333,90784.5467232376,1.4361250093317233,116.62222222222222,376.88064764843966,8.8884916667,-14.9599466667,GIN,138000.0,8.982045,-15.7809766667,GIN,199000.0,2020-05-09 10:10:03.000000 UTC,2020-06-15 09:13:11.000000 UTC,224727000-83487d338-8fba-2645-7342-563c4cb5611f-0171f8e9c878
412331129,CHN,LUQINGYUANYU051,,0,fishing,fishing,0,0.0,34042,20a508c8a733f3f8f1b1a5499ad210dc,2021-06-15 18:45:57.000000 UTC,2021-06-16 11:28:35.000000 UTC,16.7,275669.30418346683,8.913144688489119,26.441666666666666,379.07488537928475,14.1719166667,-17.3079666667,SEN,41000.0,11.789465,-16.6042833333,GNB,30000.0,2021-06-14 18:45:59.000000 UTC,2021-06-16 18:15:38.000000 UTC,412331129-9cf0187db-b472-008b-cb47-7ac486628758-017a0bd83e58
663265000,SEN,ABRELA,9208978,6WOQ,trawlers,fishing,0,0.00013,1299512,07017208602ae832059c251f73234b9f,2021-03-22 08:53:28.000000 UTC,2021-03-24 06:54:05.000000 UTC,46.0,19580.855539835607,0.2298438297003898,770.5,322.27558425452389,15.5389033333,-17.0720516667,SEN,35000.0,15.688665,-16.97587,SEN,36000.0,2021-03-19 22:53:17.000000 UTC,2021-03-24 23:33:50.000000 UTC,663265000-cb67a1305-5788-b349-dec2-61d8a8be9569-01784cb16348
541620034,,MEGA NO.2,,,drifting_longlines,fishing,0,0.00041,46085,63359ff494c15a3fc51d9d3e81ab57fd,2019-02-13 13:04:20.000000 UTC,2019-02-13 23:32:56.000000 UTC,10.466666666666667,45924.584026975375,2.3691679864241468,21.805555555555557,20.195347848140045,-16.35468,-35.2301233333,,392000.0,-15.942175,-35.25136,,387000.0,2019-02-01 22:26:08.000000 UTC,2019-03-12 19:55:49.000000 UTC,541620034-578f5910b-b0c7-2c13-13ad-ff5fe595fda9-0168ab2b4c00
663071000,SEN,DAK1178,,6WJG,trawlers,fishing,0,0.00141,37497,83a4ac9d722b05db7c01458a711d7419,2019-02-07 02:50:47.000000 UTC,2019-02-08 10:55:20.000000 UTC,32.06666666666667,47489.569283658733,0.79965642498628331,45.427777777777784,28.907396960368715,12.5898183333,-17.1478666667,SEN,40000.0,12.9599066667,-17.3664316667,SEN,65000.0,2019-01-28 19:00:51.000000 UTC,2019-02-14 02:00:15.000000 UTC,663071000-9a9c61e8b-b784-4804-9005-c06e2f03c839-016895d5eab8
228128000,FRA,F/V VIA AVENIR,8812186,FGPJ,tuna_purse_seines,fishing,0,0.0,529123,cb27b50f659d9347578f2246b697fd95,2020-11-12 05:28:52.000000 UTC,2020-11-14 06:23:48.000000 UTC,48.9,640479.36851013789,7.072212525563895,576.0,462.26959802658143,2.1523733333,-11.02512,,383000.0,3.91512,-16.51664,,561000.0,2020-10-30 11:46:47.000000 UTC,2020-12-14 07:39:46.000000 UTC,228128000-10b8887f8-845e-7692-95ca-b439d212c967-01757954e058
412440616,CHN,FU YUAN YU 9812,0,00,fishing,fishing,10,0.00176,223024,b0fe31823e15dd433ae735a5546fc0bc,2021-09-21 00:06:17.000000 UTC,2021-09-21 14:37:59.000000 UTC,14.516666666666667,8484.1138524789585,0.315572100753545,70.163888888888891,378.22704083302278,12.2093216667,-17.0991966667,SEN,41000.0,12.270485,-17.1458716667,SEN,43000.0,2021-09-09 09:24:50.000000 UTC,2021-10-13 15:04:59.000000 UTC,412440616-77042ca33-3e59-a0aa-87d2-88e68daa27a8-017bc9dfc2d0
412331134,CHN,LUQINGYUANYU56,0,0,fishing,fishing,0,0.0,33499,1c9cfa859cceea90514c02d4b0595f26,2021-01-29 05:45:58.000000 UTC,2021-01-29 16:02:39.000000 UTC,10.266666666666667,156716.41458425505,8.2422169741515852,34.222222222222221,29.571678416372123,13.3160416667,-17.214435,GMB,42000.0,11.9500133333,-16.85894,GNB,46000.0,2021-01-28 21:24:25.000000 UTC,2021-02-27 02:27:39.000000 UTC,412331134-e39f4d444-4c14-f1eb-2aa6-38eb42180ae9-01774ae20f28
663129000,SEN,SIERRA DE DAKAR,9144625,6WKN,trawlers,fishing,0,0.0,1628082,78eac10c7ff91d00ea9a363dc3bbf77f,2021-05-09 06:10:20.000000 UTC,2021-05-09 15:32:00.000000 UTC,9.35,24529.827139855322,1.4165825723805063,225.95833333333334,372.69410180804766,11.60838,-17.13904,GNB,78000.0,11.4980833333,-17.33404,GNB,95000.0,2021-04-10 01:50:02.000000 UTC,2021-05-20 07:22:47.000000 UTC,663129000-7374d1988-87f8-6037-66b4-59854a026efb-0178b978c110
224727000,ESP,F/V ALBACORA QUINCE,8206296,EDUS,tuna_purse_seines,fishing,0,0.0,163771,401eee95b7e0275d1d9964e53a08c6e6,2021-04-08 20:36:07.000000 UTC,2021-05-14 15:43:17.000000 UTC,859.11666666666667,1737002.430681664,1.0917100278181386,112.0,347.48529408548507,5.1940466667,-3.9572416667,CIV,6000.0,12.8934716667,-17.7322866667,SEN,103000.0,2021-04-08 20:36:07.000000 UTC,2021-05-14 23:55:02.000000 UTC,224727000-83487d338-8fba-2645-7342-563c4cb5611f-0178b332fed8
412371179,CHN,HAISHANG78,0,BZ7UW,drifting_longlines,fishing,0,0.00015,485587,646bac0e7ca2d2ce38678dc74d8aa509,2021-04-03 19:35:07.000000 UTC,2021-04-04 01:44:06.000000 UTC,6.1333333333333337,38829.827787768991,3.4184396235358645,81.266666666666666,528.93338041975574,7.9781216667,-39.13829,,1203000.0,7.9858983333,-38.7857566667,,1208000.0,2021-01-07 09:28:41.000000 UTC,2021-07-24 16:17:45.000000 UTC,412371179-5304d2030-0514-c5e9-f01b-0ee1cfeacc13-0176dc2d3d28
412370006,CHN,HAI SHANG28,0,BIWI,drifting_longlines,fishing,0,0.0002,261252,82e9fe942a16d348f8463d92b87109d5,2019-01-11 10:50:32.000000 UTC,2019-01-11 19:09:15.000000 UTC,8.3,31816.495991926753,2.069823309995495,68.475000000000009,310.71527118323138,5.04792,-31.76464,,985000.0,4.87968,-31.9969566667,,965000.0,2018-10-01 17:15:05.000000 UTC,2019-06-24 13:24:22.000000 UTC,412370006-f403cafce-e3c9-8c65-113f-e8ef1a348196-016630a051a8
228967000,FRA,F/V CORONA DEL MAR,9093206,FIPY,fishing,fishing,0,0.0,350100,17e63f7d3d4c794d91bcd8455980d5d7,2019-01-10 17:50:05.000000 UTC,2019-02-21 17:38:38.000000 UTC,1007.8,3489.8463141950274,0.0018697819610681541,208.0,225.27334883888079,14.6835666667,-17.41386,SEN,2000.0,14.6565583333,-17.397335,SEN,4000.0,0001-02-03 00:00:00.000000 UTC,2020-11-25 18:45:20.000000 UTC,228967000-225be91ff-f744-cd74-80d0-163ad2a6d887--3882683afc00
416035900,TWN,I MAN HUNG NO.168,,BH3315,drifting_longlines,fishing,0,0.0,297888,9120fbbe8318b51e3f6116b0436dcc34,2019-09-17 04:54:24.000000 UTC,2019-09-29 23:20:29.000000 UTC,306.43333333333334,274720.08815174416,0.48407586416890142,44.0,53.909118209822623,-5.4752383333,-19.1087916667,,584000.0,-3.0681133333,-19.6668716667,,790000.0,2019-08-08 19:17:12.000000 UTC,2019-12-04 10:48:33.000000 UTC,416035900-51455ca0c-cfc6-8dd7-51d7-3e0c83268260-016c72a9e2c0
663265000,SEN,ABRELA,9208978,6WOQ,trawlers,fishing,0,0.00283,1299512,f420d57aa611040ceaa84fc9c30ec555,2020-10-31 11:44:22.000000 UTC,2020-11-01 07:21:44.000000 UTC,19.616666666666667,3329.2172433629685,0.091638071405400714,374.35138888888895,381.65137269338561,15.6605883333,-17.088485,SEN,44000.0,15.6313,-17.0820316667,SEN,41000.0,2020-10-30 04:11:55.000000 UTC,2020-11-04 08:55:03.000000 UTC,663265000-cb67a1305-5788-b349-dec2-61d8a8be9569-017577b46ef8
412440427,CHN,FU YUAN YU 127,,,non_fishing,SEN_additions,0,0.0,87340,60f5e3941f5eb2f42e6159a8ead63ced,2021-11-23 17:14:29.000000 UTC,2021-12-16 22:12:44.000000 UTC,556.9666666666667,69994.59198366951,0.067856944425201626,20.0,34.370616993021883,11.5110433333,-16.8019466667,GNB,40000.0,10.92559,-16.566175,GNB,39000.0,2021-11-18 02:40:31.000000 UTC,2021-12-24 17:51:38.000000 UTC,412440427-8a54a5c21-1920-aeb8-f2a3-0cd99ffd6fcd-017d30eac118
412440429,CHN,FU YUAN YU 129,,,trawlers,fishing,0,0.0,145633,4795840cdbb85f717378c1815717353e,2020-08-19 16:07:22.000000 UTC,2020-08-20 23:25:41.000000 UTC,31.3,29047.820211297469,0.50110441369484793,26.083333333333332,53.481676279343219,12.2148983333,-17.2172633333,SEN,53000.0,12.2688033333,-16.955705,SEN,25000.0,2020-07-23 02:15:01.000000 UTC,2020-08-22 16:36:04.000000 UTC,412440429-ad2360f10-0f0e-f66d-84ee-db545118b0a8-01737973d488
412202222,CHN,FUYUANYU128,,,fishing,SEN_additions,0,0.0,18069,fc71852182a7b585bc85e8a9dc0b6d68,2020-01-06 04:51:34.000000 UTC,2020-01-07 09:53:14.000000 UTC,29.016666666666666,30894.465181442865,0.57489982758803126,58.033333333333331,32.372649765514154,12.1001133333,-17.0898516667,SEN,48000.0,11.8592666667,-17.2314566667,SEN,77000.0,2019-12-26 11:30:30.000000 UTC,2020-01-29 15:21:49.000000 UTC,412202222-7e3bf7a9f-f3cf-d513-9fb7-78b80dac805b-016f41f8ebf0
412200999,CHN,YIFENG10,,YIFENG,fishing,fishing,0,0.00541,24659,e30921c4e515593aea2fc96defea9c34,2020-07-17 22:58:19.000000 UTC,2020-07-18 11:03:10.000000 UTC,12.066666666666666,5665.6421066854455,0.25352502774447716,21.116666666666667,54.688599691878039,11.6418933333,-17.1272366667,GNB,78000.0,11.69084,-17.1127833333,GNB,77000.0,2020-07-12 01:04:21.000000 UTC,2020-08-19 03:08:43.000000 UTC,412200999-c5de9be58-8b54-b6da-c3b6-408c3c806ce8-0173408d2e08
224224000,ESP,AGURTZA BERRIA,8733445,EBSJ,purse_seine_support,support,0,0.00758,73677,cf670b65d033fcc0d87d8b95806d9564,2019-05-15 02:15:01.000000 UTC,2019-05-15 09:05:45.000000 UTC,6.833333333333333,98661.15573745509,7.7960139917917424,46.125,294.5006367164699,4.3970883333,-13.20413,LBR,327000.0,4.5043916667,-14.0875616667,SLE,361000.0,2019-05-11 16:22:04.000000 UTC,2019-05-25 06:57:02.000000 UTC,224224000-3c99c326d-dd2e-175d-626f-a3c488a4342b-016aa7b38fe0
412300004,CHN,HAI FENG 896,9002180,BZZQ5,carrier,carrier,0,0.00703,1122130,a56c3c626ae6b617fffa9b73132ab390,2019-05-15 13:21:43.000000 UTC,2019-05-15 21:30:43.000000 UTC,8.15,7917.6241452927115,0.52456135269400084,36.675000000000004,280.88383112012332,11.82,-19.4824266667,SEN,301000.0,11.754935,-19.511975,SEN,306000.0,2019-05-14 17:30:08.000000 UTC,2019-05-17 07:20:22.000000 UTC,412300004-ded7fca2c-c514-5ac0-2339-5927ee3b69a0-016ab764f500
412201813,CHN,LONG XING 626,,BZZP3,drifting_longlines,fishing,0,0.0,421970,da84bcb2a58a6b2093a8097a48520ca4,2019-05-21 12:18:23.000000 UTC,2019-05-21 18:21:28.000000 UTC,6.05,33217.247381087407,2.964608052147101,25.712500000000002,50.263358211678849,-10.925195,-8.4165233333,,623000.0,-11.1596066667,-8.6051933333,,611000.0,2018-09-19 07:34:30.000000 UTC,2019-09-08 08:29:57.000000 UTC,412201813-80fe1022b-b6d9-6ae1-4e03-859fa454ccb3-0165f0c07770
228967000,FRA,F/V CORONA DEL MAR,0,FIPY,fishing,fishing,0,0.0,200927,1296826bfc4ee284fd2c5510c1da1c30,2020-05-14 21:40:32.000000 UTC,2020-05-25 06:17:37.000000 UTC,248.61666666666667,16153.165669030528,0.035082168131690517,76.0,346.80414289005557,14.6350233333,-17.4056783333,SEN,4000.0,14.6309083333,-17.5557566667,SEN,11000.0,2020-05-14 21:39:56.000000 UTC,2020-05-25 07:23:46.000000 UTC,228967000-470cd7aff-f362-0640-7fd2-9cb75fb16dae-017215212fe0
663091000,SEN,HISPASEN_VII,0,6WKF,trawlers,fishing,0,0.0,1434724,13fac2e27e3fe27de4d49298c2d5b6da,2021-03-01 08:45:39.000000 UTC,2021-03-01 20:16:03.000000 UTC,11.5,5761.3320170311454,0.27051047126636985,200.29166666666666,330.84651551642605,14.454165,-17.5640083333,SEN,26000.0,14.49792,-17.5926683333,SEN,23000.0,2021-01-24 02:39:04.000000 UTC,2021-03-16 05:47:40.000000 UTC,663091000-1ec13cafd-d9b4-e10e-6fe4-e1150945872d-017732425540
306276000,BES,EXPLORER III,9171656,PJGD,purse_seine_support,support,0,0.00383,931691,6b36766355e99950f15b0f0c4b55cb6e,2020-12-11 11:57:24.000000 UTC,2020-12-12 09:02:21.000000 UTC,21.066666666666666,19.821865334973758,0.00050805147364567621,500.33333333333331,561.84260122035494,6.3088033333,-22.6140066667,,870000.0,6.308975,-22.614055,,870000.0,2020-09-02 13:41:41.000000 UTC,2021-01-04 04:17:16.000000 UTC,306276000-e7c0ad10e-ec0b-95ca-7cf5-5c1ade6509be-01744f0d3a08
663093000,SEN,AMINE,8816730,6WKH,trawlers,fishing,0,0.0016,1428136,8c772432c5472ab185d093813144852b,2019-08-10 15:55:01.000000 UTC,2019-08-17 13:52:19.000000 UTC,165.95,11201.106783984596,0.036445398097297632,376.0,264.95566573706492,14.412285,-17.436295,SEN,27000.0,14.4938833333,-17.4972933333,SEN,19000.0,2019-08-10 13:00:07.000000 UTC,2019-09-04 20:51:16.000000 UTC,663093000-56797171d-dc16-997d-5765-61029b1e0244-016c7b9d5fd8
224431000,ESP,KURTZIO,7385461,EAUN,tuna_purse_seines,fishing,0,0.00391,649405,5cce27d9b4ac2ec6270ee0b0dd8a9e11,2019-08-01 13:05:44.000000 UTC,2019-08-31 14:32:48.000000 UTC,721.45,157662.49172770529,0.11799977137453212,404.0,243.12027317811953,18.7079733333,-17.93552,MRT,164000.0,20.1210283333,-18.05958,MRT,127000.0,2019-07-30 10:59:40.000000 UTC,2019-09-11 04:30:07.000000 UTC,224431000-6ed4f138c-c178-85cf-a26c-2851bcf6eac0-016c42892560
224574000,ESP,BALAMIDA,9362762,ECIV,trawlers,fishing,0,0.00615,265797,519962f96dcc6974a09247884c79d5a2,2019-03-04 22:30:38.000000 UTC,2019-03-05 07:09:00.000000 UTC,8.6333333333333329,72146.164539557372,4.5122562609695063,29.49722222222222,182.21714908991413,17.8928933333,-16.6532233333,MRT,65000.0,17.2448583333,-16.6867983333,MRT,49000.0,2019-02-28 04:14:04.000000 UTC,2019-03-21 09:44:51.000000 UTC,224574000-3e76bb332-2818-bb3e-e236-44a1b3d4b058-0169324f2ee0
225459000,ESP,PLAYA DE RIS,9684548,EAKV,tuna_purse_seines,fishing,0,0.0,549465,95483c21c242feba699ba78d1a5d1b84,2019-06-11 06:22:40.000000 UTC,2019-06-11 19:23:15.000000 UTC,13.0,165358.87515858439,6.8682038195125594,149.5,265.29004659204725,15.6234716667,-17.44356,SEN,73000.0,14.445985,-18.384075,SEN,96000.0,2019-05-20 07:53:55.000000 UTC,2019-06-13 06:15:53.000000 UTC,225459000-31187f85c-c346-1ffa-70f8-888a0f7e7fa8-016ad43b9238
663265000,SEN,ABRELA,9208978,6WOQ,trawlers,fishing,0,0.00283,1299512,bafe50dc73d61e311868339eeed35aaa,2020-06-28 06:27:57.000000 UTC,2020-06-29 10:38:51.000000 UTC,28.166666666666668,54832.786692574904,1.0511480317310868,591.5,372.41039893278366,15.3446833333,-17.1168083333,SEN,27000.0,15.00039,-17.4825916667,SEN,24000.0,2020-06-26 14:08:21.000000 UTC,2020-06-29 16:11:58.000000 UTC,663265000-cb67a1305-5788-b349-dec2-61d8a8be9569-0172f0f53408
412440425,CHN,FU YUAN YU 125,,,trawlers,fishing,0,0.0,75292,f3945673b71e197c13b81dccff530b18,2021-05-26 15:09:44.000000 UTC,2021-05-29 00:11:11.000000 UTC,57.016666666666666,8154.7248991777578,0.077226527733776432,56.0,49.178360482838229,11.84894,-16.9334083333,GNB,59000.0,11.9222733333,-16.9341666667,GNB,52000.0,2021-05-22 22:15:12.000000 UTC,2021-06-04 13:33:21.000000 UTC,412440425-8a052e1a4-4fd2-0c91-af29-39fc6ebe7c7b-017996258580
412209195,CHN,,,,trawlers,fishing,0,0.0,2393,38c430a63cbfec8d33321842755a3ac0,2019-01-31 13:35:40.000000 UTC,2019-02-01 04:46:34.000000 UTC,15.166666666666666,2394.9336430287217,0.085263343805166564,48.027777777777771,117.28978175385987,-25.3931783333,33.4223633333,MOZ,15000.0,-25.4023166667,33.4007733333,MOZ,15000.0,0001-02-03 00:00:00.000000 UTC,2019-09-26 21:22:20.000000 UTC,412209195-76f08beba-a36a-7d8c-1e14-979ce4cd41b5--3882683afc00
224032270,ESP,ALFONSO RIERA SEGUND,9175377,EAQQ,trawlers,fishing,0,0.0,1753826,f8a08d44ca54f86569ee17783d798c89,2021-10-28 19:10:08.000000 UTC,2021-10-29 07:19:25.000000 UTC,12.15,5516.1879690655742,0.24514429819239233,252.11249999999998,419.06193101816734,10.3287383333,-17.353645,GNB,142000.0,10.2833333333,-17.3333333333,GNB,145000.0,2021-10-26 14:51:12.000000 UTC,2021-11-17 08:21:33.000000 UTC,224032270-ebdafaa65-595c-2373-4337-eaf2cebdadae-017cbd157300
306783000,BES,GALERNA,7409140,PJQD,tuna_purse_seines,fishing,0,0.0,699296,0e705ffd654ca290c1bd2539b7876ed8,2020-08-19 10:07:40.000000 UTC,2020-09-08 16:15:07.000000 UTC,486.11666666666667,1876743.44664839,2.0846032688149112,240.0,394.02350509852658,1.0983466667,-4.0566666667,,453000.0,-8.7015683333,9.7322583333,AGO,361000.0,2020-08-18 08:11:20.000000 UTC,2020-10-05 14:47:23.000000 UTC,306783000-b82c293e7-7e16-b8e4-baa8-0d859da19f90-0174009f6440
663136000,SEN,PONT SAINT LOUIS,8222422,6WLC,tuna_purse_seines,fishing,0,0.00026,337228,bb43dde932f1cdcc80ea3eaad8879c54,2020-01-24 17:29:42.000000 UTC,2020-02-03 16:59:52.000000 UTC,239.5,653434.081582901,1.4731781960773682,552.0,323.50376874105109,4.9610116667,-4.0192133333,CIV,32000.0,1.0872533333,-8.4451466667,LBR,372000.0,2020-01-24 16:17:15.000000 UTC,2020-02-05 18:38:41.000000 UTC,663136000-92a4f2dc8-84d7-6867-855b-c9d24a02c34a-016fd857def8
663101000,SEN,CHIQUITA,0,,trawlers,fishing,0,0.00034,1439484,3fd95cacdfa72521fdbcd3ff7cfdd810,2020-01-17 22:28:46.000000 UTC,2020-01-18 06:22:04.000000 UTC,7.8833333333333337,58499.052860634045,4.0068027384120963,97.227777777777774,311.36835904987015,15.35281,-17.1365933333,SEN,29000.0,14.9324366667,-17.4642966667,SEN,16000.0,2020-01-04 17:40:04.000000 UTC,2020-02-24 03:16:18.000000 UTC,663101000-3d4bfcfd2-23c1-3379-d4c2-63239c90b40e-016f71a48120
224431000,ESP,KURTZIO,7385461,EAUN,tuna_purse_seines,fishing,0,0.00391,649405,eb492d1c7be9eaa98f75a6f0bcb76678,2019-05-10 17:55:14.000000 UTC,2019-05-11 11:39:26.000000 UTC,17.733333333333334,265182.37152461085,8.07445633428028,127.0888888888889,252.84314087404266,4.9335766667,-4.4724366667,CIV,29000.0,4.27408,-6.7717066667,CIV,43000.0,2019-05-10 14:40:53.000000 UTC,2019-07-05 06:50:38.000000 UTC,224431000-6ed4f138c-c178-85cf-a26c-2851bcf6eac0-016aa2309108
224431000,ESP,KURTZIO,7385461,EAUN,tuna_purse_seines,fishing,0,0.0,649405,11c035a0586a10d1e29c5041aae9b478,2020-05-09 20:09:12.000000 UTC,2020-05-10 04:59:07.000000 UTC,8.8166666666666664,137002.95208264026,8.3904358492105988,39.675,384.57643725302046,8.2748233333,-15.67834,GIN,242000.0,8.7249066667,-16.8380266667,GIN,265000.0,2020-03-22 11:57:56.000000 UTC,2020-05-15 13:31:22.000000 UTC,224431000-6ed4f138c-c178-85cf-a26c-2851bcf6eac0-0171021b4da0
630124008,GNB,BACALAM,0,J5MM2,trawlers,fishing,0,0.0,942415,33b2a566482de6637d9296e9c42bb7ff,2021-03-31 12:44:07.000000 UTC,2021-04-01 08:45:23.000000 UTC,20.016666666666666,5488.7776022065764,0.14806175565196508,36.697222222222223,360.12821796049047,11.7587133333,-17.26996,SEN,88000.0,11.70954,-17.27436,SEN,92000.0,2021-03-05 02:42:29.000000 UTC,2021-04-05 11:58:00.000000 UTC,630124008-1ea684eb3-34e7-885e-a813-29bcbce1f753-01780043d608
224709000,ESP,MONTEMAIOR,7817323,EHTT,tuna_purse_seines,fishing,0,0.0,286887,ab82af1b3980588ad373fdbe30f86be1,2020-11-27 16:41:29.000000 UTC,2021-01-02 17:27:17.000000 UTC,864.75,1871787.3298405367,1.1687589515693788,972.0,512.62137066045739,10.6626666667,-21.6306666667,,512000.0,1.0162666667,-7.74615,LBR,369000.0,2020-11-25 22:02:19.000000 UTC,2021-01-05 03:55:08.000000 UTC,224709000-2f3be0589-99d7-c504-7172-ea324b4766b0-0176016dc1f8
224742000,ESP,MONTERAIOLA,9882009,EADI,tuna_purse_seines,fishing,0,0.0,196093,97030805a1dbfbb0083860bcc71057eb,2021-07-23 05:37:17.000000 UTC,2021-07-23 20:02:38.000000 UTC,14.416666666666666,219085.42340290433,8.205549010708161,344.79861111111109,353.95386533996975,18.10582,-18.6285833333,MRT,261000.0,20.01558,-18.1158616667,MRT,139000.0,2021-07-15 19:18:28.000000 UTC,2021-08-03 15:08:21.000000 UTC,224742000-c44bf0cee-e97e-f9c4-3c32-97d90554b144-017aab9b1fa0
412331136,CHN,LUQINGYUANYU058,9771884,UBZN3,fishing,fishing,1,0.00281,588888,9b598202d2766d2bdb91a44b5defea81,2020-02-29 23:43:43.000000 UTC,2020-03-01 08:30:42.000000 UTC,8.7666666666666675,51349.119028398738,3.1626965213887814,21.916666666666668,33.100327228449714,10.25436,-16.4267516667,GNB,91000.0,10.4984383333,-16.8252883333,GNB,91000.0,2020-02-16 19:11:01.000000 UTC,2020-03-23 14:10:21.000000 UTC,412331136-8bdc35cd8-8f3e-0f61-aa7d-59737997061a-01704f693988
412203336,CHN,FU YUAN YU 217,,,non_fishing,SEN_additions,0,0.0,13428,2face11df5d8e5c643ba33ecf4d89d3d,2019-08-24 11:13:40.000000 UTC,2019-09-01 16:15:54.000000 UTC,197.03333333333333,320001.94206733641,0.876944133335997,24.0,23.198665949347259,14.523075,-17.37632,SEN,16000.0,11.679,-16.92496,GNB,56000.0,2019-08-24 10:51:54.000000 UTC,2019-09-15 14:25:42.000000 UTC,412203336-50f82a617-77c1-8c73-d7fa-ecb9986eaa65-016cc3410510
412202222,CHN,FUYUANYU128,,,fishing,SEN_additions,0,0.0,18069,1bebb244f131b0febcc5d2efd97ac537,2019-06-20 00:53:24.000000 UTC,2019-06-20 10:49:04.000000 UTC,9.9166666666666661,4062.8648925764319,0.22122065952282879,23.138888888888886,33.826022215413246,11.4014583333,-16.7094133333,GNB,27000.0,11.39529,-16.7461516667,GNB,31000.0,2019-06-08 14:00:20.000000 UTC,2019-06-21 10:36:33.000000 UTC,412202222-7e3bf7a9f-f3cf-d513-9fb7-78b80dac805b-016b3763dd20
412201812,CHN,LONG XING 625,,BZZP2,drifting_longlines,fishing,0,0.0,551653,c8fc08b819cfec2e6b3dd909b0ac0dec,2020-06-02 07:14:20.000000 UTC,2020-06-02 19:21:15.000000 UTC,12.1,10793.109326387603,0.48163742241524032,58.483333333333327,58.6931880287957,-1.4531233333,-22.50744,,1129000.0,-1.358845,-22.4843433333,,1134000.0,2019-09-14 15:16:04.000000 UTC,2020-08-17 10:31:02.000000 UTC,412201812-cf3b0879c-c53f-01f7-1c2c-339e537a375a-016d30586b20
663067000,SEN,,,,trawlers,fishing,0,0.0,11,15102efcaae0c3833fa4736693948021,2020-06-16 05:01:08.000000 UTC,2020-06-17 13:15:10.000000 UTC,32.233333333333334,131564.11961209349,2.2038968399755676,37.605555555555554,40.979117741841037,13.7390383333,-17.1220166667,SEN,40000.0,14.8597916667,-17.5134033333,SEN,10000.0,0001-02-03 00:00:00.000000 UTC,2020-10-24 09:21:39.000000 UTC,663067000-587082357-776d-d86a-619c-656fd29f5751--3882683afc00
629000007,GMB,HANSEN 03,,,fishing,SEN_additions,0,0.0,16154,96b59c71759ed3d3d1cbf24799dafbde,2020-03-08 23:13:07.000000 UTC,2020-03-09 15:03:46.000000 UTC,15.833333333333334,3337.8539384015639,0.11382928060935195,26.388888888888889,29.718160917021493,13.2798016667,-17.00965,GMB,21000.0,13.2499433333,-17.0064733333,GMB,21000.0,2020-03-06 11:22:07.000000 UTC,2020-09-10 23:43:34.000000 UTC,629000007-855d1ac31-1559-f298-5a8e-056b6e6bcf5d-0170af94c318
224820000,ESP,VILLA NORES,9098256,ECCT,trawlers,fishing,0,0.00663,2247563,f8311d7cc697ae97a2d3ec31dec7101e,2020-10-09 08:08:00.000000 UTC,2020-10-11 08:26:17.000000 UTC,48.3,122516.1528774,1.3696362376681916,1352.0,618.41501714648757,-46.31912,-60.80528,,389000.0,-45.2541266667,-60.4002066667,,379000.0,2020-09-20 14:45:01.000000 UTC,2020-10-26 11:02:25.000000 UTC,224820000-6ce690937-7033-060b-2b50-ac90964553f1-0174abf9adc8
412549197,CHN,GUOJIN908,,,trawlers,fishing,0,0.0,129647,4d6f882ca85ed842ed252963767a0c56,2020-10-12 16:11:24.000000 UTC,2020-10-13 11:47:17.000000 UTC,19.583333333333332,3572.9666227574362,0.09851477292654115,55.486111111111107,46.5720333879151,10.38969,-16.0491233333,GNB,61000.0,10.3732316667,-16.07718,GNB,65000.0,2020-10-05 19:18:34.000000 UTC,2020-10-31 09:35:37.000000 UTC,412549197-b1746e808-87ff-d6f5-bd85-255ca80d9d1a-0174fa338310
225989933,ESP,FRIOMAR,9853462,EAYM,trawlers,fishing,0,0.00151,1766893,594a534b51c76e1a2507a52efc194b56,2020-01-10 15:30:15.000000 UTC,2020-01-11 08:00:53.000000 UTC,16.5,88870.045541548214,2.908241558398724,313.5,356.48147415687981,10.83104,-17.41792,GNB,114000.0,10.1535783333,-16.9866683333,GNB,131000.0,2020-01-10 01:23:55.000000 UTC,2020-01-22 06:05:23.000000 UTC,225989933-baa191958-843d-fe67-0458-4d889d60c244-016f8d0cf7f8
306097000,BES,GURIA,9758351,PJCP,tuna_purse_seines,fishing,0,0.0,662404,1fc8ea566f8c4507a4377315e47d24b6,2020-07-11 13:46:00.000000 UTC,2020-07-14 22:23:04.000000 UTC,80.61666666666666,73907.295537187412,0.49501856998532789,672.0,378.80485893898731,20.0830666667,-20.2482666667,ESH,338000.0,20.5705766667,-20.7300583333,,378000.0,2020-06-26 17:00:11.000000 UTC,2020-07-20 07:35:04.000000 UTC,306097000-b45463f1c-c27a-e927-11ee-965091c56af4-0172f1928578
412440533,CHN,,,,trawlers,SEN_additions,0,0.00035,53,de4220b920d85b0ced367b62c4a9feff,2019-05-07 05:31:07.000000 UTC,2019-05-07 14:50:58.000000 UTC,9.3166666666666664,14612.044710225804,0.84685577320418315,136.64444444444445,360.0036329696776,-19.547415,35.6766766667,MOZ,29000.0,-19.441875,35.75973,MOZ,29000.0,2018-07-14 05:46:35.000000 UTC,2020-02-08 19:06:16.000000 UTC,412440533-040d785ed-d50b-ed8c-459d-0ecb30abecb8-016497539678
306276000,BES,EXPLORER III,9171656,PJGD,purse_seine_support,support,0,0.0,931691,36c2816b2d981e9b659479ae33207a98,2019-05-11 21:48:34.000000 UTC,2019-07-18 16:45:10.000000 UTC,1626.9333333333334,127902.18426378234,0.042448976337942666,576.0,319.19176066307142,7.3698666667,-22.16496,,759000.0,6.3086216667,-22.6118066667,,870000.0,2019-05-09 14:50:06.000000 UTC,2019-08-23 07:52:35.000000 UTC,306276000-e7c0ad10e-ec0b-95ca-7cf5-5c1ade6509be-016a9d12a530
663138000,SEN,SOFIA,0,6WLE,trawlers,fishing,0,0.00595,1065173,1e3b3fc6256b6c3fed0909f5e98cfca9,2019-05-27 08:50:16.000000 UTC,2019-05-27 15:23:23.000000 UTC,6.55,6509.9619733224417,0.53665622255473278,67.1375,265.5158563745307,11.5881333333,-17.3454133333,GNB,99000.0,11.6037433333,-17.2878116667,GNB,94000.0,2019-05-16 00:35:00.000000 UTC,2019-05-29 07:05:00.000000 UTC,663138000-36d3cd4c0-0901-e0f8-4f7b-f8c0e630c60d-016abe104b20
663129000,SEN,SIERRA DE DAKAR,9144625,6WKN,trawlers,fishing,0,0.00355,1628082,119dae70ee893c1f057dbc25fed22456,2019-05-25 12:00:00.000000 UTC,2019-05-25 18:13:02.000000 UTC,6.2166666666666668,19609.750782903531,1.7032308336675541,52.323611111111113,265.5158563745307,11.6500266667,-17.12704,GNB,78000.0,11.71769,-17.2933433333,GNB,92000.0,2019-04-29 13:54:59.000000 UTC,2019-06-11 07:10:15.000000 UTC,663129000-7374d1988-87f8-6037-66b4-59854a026efb-016a69609738
412209112,CHN,MX17,,,set_longlines,fishing,0,0.0,22767,9ed5d4f5e1b21b589fdaf4f21b59cb53,2019-05-10 17:42:41.000000 UTC,2019-05-11 21:22:34.000000 UTC,27.65,23253.55545084273,0.45410182532432036,52.99583333333333,43.537732491849908,8.67405,-14.0651983333,SLE,86000.0,8.7170033333,-13.8581533333,SLE,66000.0,2018-06-12 12:42:23.000000 UTC,2021-04-20 12:28:55.000000 UTC,412209112-3ae062330-0a2e-7e95-640a-bc5c09bc27c9-0163f404c398
663071000,SEN,DAK1178,,6WJG,trawlers,fishing,0,0.0066,37497,4f471e9e39f91697e5251f81b0177339,2020-09-22 04:56:03.000000 UTC,2020-09-22 23:41:45.000000 UTC,18.75,8983.84473505363,0.25871403124704478,25.0,47.912877261486528,12.61292,-17.02759,SEN,27000.0,12.5486166667,-16.9774716667,SEN,21000.0,2020-09-16 22:29:51.000000 UTC,2020-09-24 00:31:28.000000 UTC,663071000-9a9c61e8b-b784-4804-9005-c06e2f03c839-01749909cf18
663129000,SEN,SIERRA DE DAKAR,9144625,6WKN,trawlers,fishing,0,0.00355,1628082,31124e72f8c646d5f38aee024da07bc3,2019-11-21 19:12:32.000000 UTC,2019-11-22 06:27:39.000000 UTC,11.25,9512.916800977031,0.456583479768516,150.9375,288.58803453655128,10.7433533333,-17.3849783333,GNB,115000.0,10.7408983333,-17.2979366667,GNB,108000.0,2019-11-06 11:26:29.000000 UTC,2019-12-16 06:10:08.000000 UTC,663129000-7374d1988-87f8-6037-66b4-59854a026efb-016e40774688
412331129,CHN,LUQINGYUANYU051,,0,fishing,fishing,0,0.0,34042,5ea76766485a09fabaf1e8511c4f40de,2021-07-12 01:30:16.000000 UTC,2021-07-13 06:29:04.000000 UTC,28.966666666666665,382456.41224408348,7.1292269902114995,28.966666666666665,43.472937915041996,14.4421733333,-17.3512466667,SEN,26000.0,11.0483833333,-16.7781,GNB,41000.0,2021-07-02 20:46:05.000000 UTC,2021-08-12 21:14:46.000000 UTC,412331129-9cf0187db-b472-008b-cb47-7ac486628758-017a68f8aac8
224266000,ESP,FUNCHO,9230701,EAUS,trawlers,fishing,0,0.00324,1818508,a9ea4200897bd7ea46dd4aac9f889cb5,2020-02-21 05:31:10.000000 UTC,2020-02-21 19:22:13.000000 UTC,13.85,38014.002148200132,1.4820158185199388,58.862500000000004,360.11932285667672,9.88488,-16.8152,GNB,145000.0,10.22632,-16.83256,GNB,113000.0,2020-01-23 14:30:09.000000 UTC,2020-02-24 12:28:06.000000 UTC,224266000-57dd14963-3bd9-68f8-21e1-dd80df39b7b2-016fd2cf7568
663220000,SEN,MASEOUD3,0,6WMZ,trawlers,SEN_additions,0,0.00273,923453,8f12094614c0808c98f6cc2b81c0d4a8,2020-02-17 09:26:19.000000 UTC,2020-02-17 18:56:41.000000 UTC,9.5,20863.6665231732,1.1858398614967147,160.70833333333334,338.56071062400429,12.6621,-17.4638,SEN,73000.0,12.6325666667,-17.2739,SEN,53000.0,2020-02-11 18:03:27.000000 UTC,2020-02-27 04:49:38.000000 UTC,663220000-bed660dba-a8c8-eaf9-192e-c67d3f1718a4-0170356b9198
412283998,CHN,CHANG RONG 4,,BZZW6,drifting_longlines,fishing,0,0.00062,152042,c6e8039136dbc1b57614245331012138,2019-03-22 14:31:11.000000 UTC,2019-03-22 21:08:33.000000 UTC,6.6166666666666663,34934.415271725033,2.850842599604352,24.261111111111109,25.184578172665795,7.3703266667,-42.4462266667,,997000.0,7.2270716667,-42.1643316667,,991000.0,2018-10-07 15:50:56.000000 UTC,2019-09-22 11:26:06.000000 UTC,412283998-227c515f7-7df2-4f53-1d4c-74749e6268de-01664f396f00
416060900,TWN,CHIN CHANG MING,,,drifting_longlines,fishing,0,0.0,98497,1fdc725c5b1d17900b3016f6b6d20ab7,2019-07-21 11:13:38.000000 UTC,2019-07-22 07:06:34.000000 UTC,19.866666666666667,24350.485522384377,0.66182266737893669,71.188888888888883,55.27191114511038,-9.2208566667,-20.01496,,630000.0,-9.0237916667,-19.91823,,616000.0,2018-08-10 12:53:50.000000 UTC,2019-08-30 06:33:48.000000 UTC,416060900-92844d659-9c82-f0ca-2010-896273000a25-016523e67330
619000200,CIV,GFB1,,00,fishing,fishing,0,0.0,14038,4c2335e9291d60a640144a9495ea998e,2019-07-18 04:52:11.000000 UTC,2019-07-23 04:07:27.000000 UTC,119.25,53952.408916334047,0.24429325163270282,204.0,31.768204220686926,13.558235,-17.1329633333,GMB,40000.0,13.0974433333,-17.28914,GMB,54000.0,2019-07-17 22:12:14.000000 UTC,2019-08-05 05:16:00.000000 UTC,619000200-f2128de5e-e757-7ad6-4777-becf2e192204-016c01fe3a30
224405000,ESP,PLAYA DE BAKIO,9010345,EGWJ,tuna_purse_seines,fishing,0,0.0,335465,56898f7ebb095d3b486ca75017cb3019,2020-06-23 05:33:25.000000 UTC,2020-06-24 21:20:03.000000 UTC,39.766666666666666,419204.29538764426,5.6920086672025478,235.28611111111113,447.12874274230808,12.2427466667,-21.3437333333,,375000.0,13.528755,-17.708195,GMB,98000.0,2020-05-30 14:02:53.000000 UTC,2020-07-06 07:05:41.000000 UTC,224405000-787f7ed88-81e8-f0a2-de81-c5b108d80abd-017265e47ec8
224733000,ESP,MAR DE SERGIO,8212075,EHNB,tuna_purse_seines,fishing,0,0.00746,469190,f8c85d0a61dec2338b5f6225d4adf0ac,2020-06-03 11:30:47.000000 UTC,2020-06-12 06:21:08.000000 UTC,210.83333333333334,195134.69345535032,0.49975164579350256,336.0,380.26079630438335,16.0654933333,-18.4369866667,MRT,176000.0,14.5788066667,-17.47018,SEN,9000.0,2020-05-02 20:02:11.000000 UTC,2020-06-12 07:06:38.000000 UTC,224733000-e02eef255-5cad-9bd0-fb32-3c1a9b6690ab-0171d6fb61b8
412201812,CHN,LONG XING 625,,BZZP2,drifting_longlines,fishing,0,0.0,551653,95f9f38ec5390555c89de6a6f0921d97,2020-06-05 06:58:04.000000 UTC,2020-06-05 19:18:57.000000 UTC,12.333333333333334,12009.627473488634,0.52578486983342909,54.472222222222229,57.831028893515395,-0.77741,-20.9665916667,,1072000.0,-0.87341,-20.9170983333,,1061000.0,2019-09-14 15:16:04.000000 UTC,2020-08-17 10:31:02.000000 UTC,412201812-cf3b0879c-c53f-01f7-1c2c-339e537a375a-016d30586b20
224709000,ESP,MONTEMAIOR,7817323,EHTT,tuna_purse_seines,fishing,0,0.0012,286887,26b8a2def4bdc391284e1d2beea466a8,2020-03-26 11:47:50.000000 UTC,2020-04-01 22:23:31.000000 UTC,154.58333333333334,1843232.9254658404,6.4383794617285846,220.0,464.37039700303831,-9.1207,9.8196833333,AGO,348000.0,1.38056,-3.0540533333,,386000.0,2020-02-25 21:45:04.000000 UTC,2020-04-03 04:35:06.000000 UTC,224709000-2f3be0589-99d7-c504-7172-ea324b4766b0-01707e4f7f00
412331136,CHN,LUQINGYUANYU058,9771884,UBZN3,fishing,fishing,1,0.00281,588888,5d3fd85e23b2159587de994ea4489a24,2020-10-20 14:40:56.000000 UTC,2020-10-21 16:33:09.000000 UTC,25.866666666666667,43584.214309042225,0.90980385461751212,256.51111111111112,408.67721507368719,10.5936,-16.3345333333,GNB,52000.0,10.2016533333,-16.3380166667,GNB,94000.0,2020-10-06 19:13:52.000000 UTC,2020-11-16 11:06:54.000000 UTC,412331136-8bdc35cd8-8f3e-0f61-aa7d-59737997061a-0174ff559180
224745000,ESP,ALBONIGA,8613267,EDKU,tuna_purse_seines,fishing,0,0.00026,1364057,bed25584a41d1bdc405e6e8e7944fb52,2021-11-07 12:30:18.000000 UTC,2021-11-08 14:48:17.000000 UTC,26.283333333333335,398882.46870747831,8.1945200795618636,183.98333333333335,490.46925141393172,13.6619116667,-21.766375,CPV,220000.0,14.4950316667,-18.16911,SEN,73000.0,2021-10-09 17:25:32.000000 UTC,2021-11-08 20:12:15.000000 UTC,224745000-818356b57-7844-a4ae-919e-36a06ae5a84a-017c6616a2e0
663213000,SEN,MAXIMUS,,6WMS,fishing,fishing,0,0.00229,25887,15c16c61b51f9e2f30d157e3a630ccd5,2020-01-05 13:20:45.000000 UTC,2020-01-07 06:21:16.000000 UTC,41.0,701593.30748126621,9.2397580398417833,153.75,53.877197272884843,6.9218616667,-28.6243166667,,971000.0,8.219935,-34.85341,,1321000.0,2019-12-26 21:32:08.000000 UTC,2020-01-22 06:06:14.000000 UTC,663213000-c4f0427a0-0d33-bf4f-8a1c-2f11150d58f2-016f441fbbc0
412202222,CHN,FUYUANYU128,,,fishing,SEN_additions,0,0.0,18069,fc71852182a7b585bc85e8a9dc0b6d68,2020-01-06 04:51:34.000000 UTC,2020-01-07 09:53:14.000000 UTC,29.016666666666666,30894.465181442865,0.57489982758803126,58.033333333333331,32.372649765514154,12.1001133333,-17.0898516667,GNB,48000.0,11.8592666667,-17.2314566667,SEN,77000.0,2019-12-26 11:30:30.000000 UTC,2020-01-29 15:21:49.000000 UTC,412202222-7e3bf7a9f-f3cf-d513-9fb7-78b80dac805b-016f41f8ebf0
354747000,PAN,MONTECLARO,8829440,HO2095,purse_seine_support,support,0,0.0,289321,e0b1c69388cc6616a11551367c424a21,2020-07-19 06:02:15.000000 UTC,2020-07-20 20:52:07.000000 UTC,38.81666666666667,54747.782941918864,0.76156559571334381,530.49444444444453,366.8858814376631,19.39344,-19.59712,MRT,306000.0,19.2296533333,-20.08912,MRT,359000.0,2020-06-04 15:29:25.000000 UTC,2020-08-03 07:55:32.000000 UTC,354747000-c98f8b2e7-733c-f6b2-bf0f-d6346cf972cf-01727ff38408
412201809,CHN,LONG XING 622,,,drifting_longlines,fishing,0,0.00011,365309,d1972154bed6e8bd39b42e7ed8bf0d4a,2019-05-19 12:12:23.000000 UTC,2019-05-19 18:34:37.000000 UTC,6.3666666666666663,33435.691739060421,2.8356799842022005,21.222222222222221,49.112374679253406,-13.0940066667,-9.4349066667,,505000.0,-13.0815583333,-9.1264583333,,481000.0,2018-09-20 07:13:06.000000 UTC,2019-09-08 07:50:26.000000 UTC,412201809-c1c95891a-a682-597a-2e17-eb98bdb0e081-0165f5d33bd0
412200999,CHN,YI FENG 10,,0,fishing,fishing,0,0.0,16554,460a0fb15bf2e8260a57f9c574b44e33,2019-05-12 06:55:30.000000 UTC,2019-05-16 21:50:24.000000 UTC,110.9,227151.16042204248,1.1059676689156386,36.0,34.708437578462707,13.60321,-17.3370033333,SEN,63000.0,11.5859733333,-17.0067733333,GNB,64000.0,2019-05-12 01:16:16.000000 UTC,2019-05-31 11:18:50.000000 UTC,412200999-a5f1cc4b5-5762-d3dc-5e5b-3a216f715b02-016aa99ca300
412440612,CHN,FU YUAN YU 9808,,00,trawlers,fishing,0,0.0,239774,b5e70ac29092583aadbf27a779bcc058,2020-05-01 18:51:00.000000 UTC,2020-05-02 11:10:00.000000 UTC,16.316666666666666,5044.9979813758036,0.16695082636144579,31.273611111111109,372.69410180804766,11.66436,-17.2914866667,SEN,95000.0,11.7083283333,-17.2800566667,SEN,93000.0,2020-04-25 14:30:05.000000 UTC,2020-05-19 09:35:25.000000 UTC,412440612-641333c98-89aa-2322-af5e-6c50d4227f5c-0171b1bed1c8
663065000,SEN,DAK939,,6WD1,trawlers,fishing,0,0.00249,68372,278ebbc017db3e54f2d5628accd5dd3e,2020-05-09 21:23:05.000000 UTC,2020-05-12 03:19:00.000000 UTC,53.916666666666664,31702.983413725622,0.31749443432615349,60.0,36.111767374519388,15.2167083333,-17.2100483333,SEN,26000.0,14.9966433333,-17.39781,SEN,21000.0,2020-04-17 21:51:53.000000 UTC,2020-05-22 04:56:43.000000 UTC,663065000-582621f80-05f4-4b17-111d-2372980e1005-01718a206ca8
224086000,ESP,FUENTE DE MACENLLE,9306615,ECEK,trawlers,fishing,0,0.0,121699,cd8e43ef3432c3f949aebaae19dbcb46,2020-11-23 10:11:41.000000 UTC,2020-11-29 15:10:03.000000 UTC,148.96666666666667,48521.76816869255,0.17587598235659144,276.0,379.77052648701465,19.8551466667,-17.1515466667,MRT,56000.0,20.2911733333,-17.1698666667,MRT,55000.0,2020-11-23 05:12:46.000000 UTC,2020-11-29 18:12:25.000000 UTC,224086000-9434563ef-fe48-8879-e066-7c4ab2c81d4d-0175f384c4b0
412440797,CHN,FU YUAN YU7859,0,BZW8P,drifting_longlines,fishing,0,0.00024,1050719,5d8bba9e6bec3f3ce0f860da15c03341,2021-02-17 08:05:00.000000 UTC,2021-02-18 17:45:36.000000 UTC,33.666666666666664,133588.59169289848,2.1425367014450285,1374.7222222222219,725.3266467119048,-29.4622033333,5.9670216667,,943000.0,-29.0032733333,4.6946916667,,1053000.0,2021-01-25 02:01:31.000000 UTC,2021-04-22 08:44:43.000000 UTC,412440797-8c2377963-35b8-2df4-48e3-5ce277f9a967-017737465078
224009000,ESP,RIODOMAR CUARTO,0,EAYH,trawlers,fishing,0,0.00138,1119961,2072dd3ca8231b83307759b003d0c676,2020-09-20 06:18:57.000000 UTC,2020-09-20 13:31:00.000000 UTC,7.2,77383.167505300662,5.8032733010334674,106.2,313.85788155688925,18.3778983333,-16.3163666667,MRT,28000.0,19.0414933333,-16.5377066667,MRT,25000.0,2020-08-28 13:04:15.000000 UTC,2020-10-04 04:21:03.000000 UTC,224009000-c32f3661e-e12f-f4b8-1900-487023df40d9-0174352b2898
306118000,BES,AGURTZA BERRIA,8733445,PJBL,purse_seine_support,support,0,0.0,285813,6e0a7f0b7f5ec723c34a9c02833b3463,2021-01-23 08:09:44.000000 UTC,2021-03-24 22:39:08.000000 UTC,1454.4833333333333,381305.25170171732,0.14155429638227049,312.0,377.8960849463258,0.9675483333,-4.0156533333,,467000.0,4.395475,-3.9237583333,CIV,90000.0,2020-12-22 16:54:09.000000 UTC,2021-03-25 06:49:59.000000 UTC,306118000-6632c9eb8-8009-abdb-baf9-b67d65f20510-01768b5f5368
412440647,CHN,FU YUAN YU 9802,0,0,trawlers,fishing,0,0.0,494361,e46846f37472687290acb2e31ac94ccf,2021-12-27 13:20:52.180000 UTC,2021-12-28 15:05:29.420000 UTC,25.733333333333334,53350.215349573919,1.1194356895270883,347.40000000000003,33.7669127590957,12.1497616667,-17.4051583333,SEN,74000.0,12.0328183333,-17.881035,SEN,127000.0,2021-12-08 02:44:07.000000 UTC,2021-12-29 07:31:00.000000 UTC,412440647-3f6a5c62e-e772-f2f1-1d6e-727ff0046afa-017d97ed3cd8
224266000,ESP,,,,trawlers,fishing,0,0.00741,421,ada2092a8c9ea51adc2b41d15abdeda6,2019-01-01 00:46:19.000000 UTC,2019-01-07 21:46:58.000000 UTC,165.0,17868.57088716621,0.058474281324583446,172.0,199.0957834824585,20.6787566667,-17.0628116667,MRT,10000.0,20.8294366667,-17.0030916667,MRT,4000.0,2014-05-04 17:50:23.000000 UTC,2019-09-02 10:56:12.000000 UTC,224266000-a19dc6ec2-2d46-efbf-e1b9-860840fe372f-0145c85baf18
412331136,CHN,KIRSA 058,,UBZN3,fishing,fishing,0,0.0,10994,5d3fd85e23b2159587de994ea4489a24,2020-10-20 14:40:56.000000 UTC,2020-10-21 16:33:09.000000 UTC,25.866666666666667,43584.214309042225,0.90980385461751212,256.51111111111112,408.67721507368719,10.5936,-16.3345333333,GNB,52000.0,10.2016533333,-16.3380166667,GNB,94000.0,2017-12-22 05:22:48.000000 UTC,2021-01-01 09:56:59.000000 UTC,412331136-25c4d6159-941b-8273-7a6e-2a176c660978-01607cac8040
663213000,SEN,MAXIMUS,,6WMS,fishing,fishing,0,0.00229,25887,baa6e488be8bc1fc8f1bbb07d3bb64d3,2019-12-08 04:52:11.000000 UTC,2019-12-09 21:59:47.000000 UTC,41.116666666666667,237154.99180927384,3.1143928163981465,92.5125,54.708754757134642,-5.5258666667,-20.6257083333,,735000.0,-7.2955516667,-19.4278,,556000.0,2019-11-18 20:45:27.000000 UTC,2019-12-24 06:32:34.000000 UTC,663213000-c4f0427a0-0d33-bf4f-8a1c-2f11150d58f2-016e80435658
412331136,CHN,LUQINGYUANYU058,9771884,UBZN3,fishing,fishing,0,0.0005,588888,62b8e9f66a400d49e36437e8b541a4a7,2019-12-13 15:40:38.000000 UTC,2019-12-13 23:28:01.000000 UTC,7.7833333333333332,52293.032723100529,3.6277488812211023,27.890277777777779,22.235209182168234,11.4014283333,-17.2117683333,GNB,80000.0,11.8707166667,-17.180575,SEN,72000.0,2019-12-04 23:16:43.000000 UTC,2019-12-29 03:00:13.000000 UTC,412331136-8bdc35cd8-8f3e-0f61-aa7d-59737997061a-016ed3339378
630124008,GNB,BACALAM,0,J5MM2,trawlers,fishing,0,0.0,942415,9fee326b2266c029a80bb445d1ff0a3f,2021-10-17 19:29:56.000000 UTC,2021-10-18 11:58:43.000000 UTC,16.466666666666665,56143.57254013473,1.8409982163981187,514.58333333333326,408.67721507368719,10.408275,-16.0725916667,GNB,60000.0,10.478515,-16.581015,GNB,75000.0,2021-10-07 00:13:44.000000 UTC,2021-11-02 05:19:48.000000 UTC,630124008-1ea684eb3-34e7-885e-a813-29bcbce1f753-017c581946c0
312557000,BLZ,AVEN,9276080,V3ZX5,non_fishing,SEN_additions,32,0.06398,408155,f0d2420207698da914b8c1d99f42f1d3,2020-01-02 04:37:08.000000 UTC,2020-01-02 18:01:54.000000 UTC,13.4,130103.20462743749,5.2425455589535108,228.91666666666666,345.21447179956544,1.22904,1.6218933333,,510000.0,0.2961866667,2.3282133333,,410000.0,2019-12-30 07:48:46.000000 UTC,2020-01-07 04:44:20.000000 UTC,312557000-8fd5135d4-4d2f-bf47-5df5-a57c26d12173-016f55c75b30
306094000,BES,ALBACORA  NUEVE,7403639,PJXU,tuna_purse_seines,fishing,0,0.0,171022,f6618e98fdd6fc84ff7135e6a48eac05,2020-07-06 06:17:28.000000 UTC,2020-07-06 23:11:15.000000 UTC,16.883333333333333,165456.39594087756,5.2915680156095242,36.580555555555556,389.17630614422524,18.4013066667,-20.85288,CPV,277000.0,19.5921666667,-19.90931,ESH,324000.0,2020-06-20 18:40:41.000000 UTC,2020-07-21 12:13:09.000000 UTC,306094000-a3f5a79fc-cafd-1317-8215-f6c466c191a2-0172d3086028
341171000,KNA,FENG 95,8814237,V4LP4,carrier,carrier,0,0.0,168571,67940bd1179803e223a987e2c35ad9d6,2020-07-21 16:09:12.000000 UTC,2020-07-27 00:54:01.000000 UTC,128.73333333333332,48856.105911392966,0.20492118159407063,28.0,29.700263741643539,25.8398083333,55.5342533333,ARE,26000.0,25.507935,55.2147733333,ARE,23000.0,0001-02-03 00:00:00.000000 UTC,2021-07-25 16:28:07.000000 UTC,341171000-5fe225476-6a9a-6e4d-efea-d68fc98f7e11--3882683afc00
663061000,SEN,DAK1193,,SOLEI66,trawlers,fishing,0,0.0,10095,bfaed162a639f377c02722361a625261,2019-10-31 15:00:23.000000 UTC,2019-11-07 22:03:18.000000 UTC,175.03333333333333,180440.38216949656,0.55663689947002759,44.0,17.807241836912567,14.2626233333,-17.3385516667,SEN,37000.0,12.647885,-17.173085,SEN,42000.0,2019-10-31 12:28:16.000000 UTC,2019-12-07 09:02:15.000000 UTC,663061000-f496958c6-63f0-8e14-5a91-c84952e4b030-016e21c9af00
412331136,CHN,LUQINGYUANYU058,9771884,UBZN3,fishing,fishing,1,0.00281,588888,ea3e63bb31ab5390b9d7242a6935dc2b,2020-05-19 08:18:49.000000 UTC,2020-05-19 19:15:01.000000 UTC,10.933333333333334,36802.234200469378,1.8175259212421662,150.33333333333334,372.69410180804766,11.4400683333,-17.22025,GNB,82000.0,11.7547316667,-17.115505,GNB,78000.0,2020-05-12 01:34:49.000000 UTC,2020-06-08 11:06:33.000000 UTC,412331136-8bdc35cd8-8f3e-0f61-aa7d-59737997061a-0172068526a8
